%time,field.header.seq,field.header.stamp,field.header.frame_id,field.name0,field.name1,field.position0,field.position1
271341000000,4932,271341000000,,right_wheel_hinge,left_wheel_hinge,-4.14401029225e-05,0.000110875375291
271390000000,4933,271390000000,,right_wheel_hinge,left_wheel_hinge,-4.14487261819e-05,0.000110897680727
271438000000,4934,271438000000,,right_wheel_hinge,left_wheel_hinge,-4.14573494512e-05,0.000110919986171
271490000000,4935,271490000000,,right_wheel_hinge,left_wheel_hinge,-4.14659727284e-05,0.000110942291629
271540000000,4936,271540000000,,right_wheel_hinge,left_wheel_hinge,-4.14745960153e-05,0.000110964597093
271591000000,4937,271591000000,,right_wheel_hinge,left_wheel_hinge,-4.14832193112e-05,0.00011098690257
271640000000,4938,271640000000,,right_wheel_hinge,left_wheel_hinge,-4.1491842615e-05,0.000111009208057
271690000000,4939,271690000000,,right_wheel_hinge,left_wheel_hinge,-4.15004659295e-05,0.000111031513553
271740000000,4940,271740000000,,right_wheel_hinge,left_wheel_hinge,-4.15090892512e-05,0.00011105381906
271791000000,4941,271791000000,,right_wheel_hinge,left_wheel_hinge,-4.15177125825e-05,0.000111076124579
271840000000,4942,271840000000,,right_wheel_hinge,left_wheel_hinge,-4.15263359228e-05,0.000111098430104
271891000000,4943,271891000000,,right_wheel_hinge,left_wheel_hinge,-4.15349592737e-05,0.000111120735644
271940000000,4944,271940000000,,right_wheel_hinge,left_wheel_hinge,-4.15435826318e-05,0.00011114304119
271991000000,4945,271991000000,,right_wheel_hinge,left_wheel_hinge,-4.15522059996e-05,0.00011116534675
272041000000,4946,272041000000,,right_wheel_hinge,left_wheel_hinge,-4.15608293753e-05,0.000111187652317
272090000000,4947,272090000000,,right_wheel_hinge,left_wheel_hinge,-4.15694527609e-05,0.000111209957897
272140000000,4948,272140000000,,right_wheel_hinge,left_wheel_hinge,-4.15780761545e-05,0.000111232263484
272191000000,4949,272191000000,,right_wheel_hinge,left_wheel_hinge,-4.15866995578e-05,0.000111254569085
272235000000,4950,272235000000,,right_wheel_hinge,left_wheel_hinge,-4.15953229709e-05,0.000111276874692
272291000000,4951,272291000000,,right_wheel_hinge,left_wheel_hinge,-4.16039463911e-05,0.000111299180313
272341000000,4952,272341000000,,right_wheel_hinge,left_wheel_hinge,-4.1612569821e-05,0.000111321485942
272391000000,4953,272391000000,,right_wheel_hinge,left_wheel_hinge,-4.16211932599e-05,0.000111343791583
272441000000,4954,272441000000,,right_wheel_hinge,left_wheel_hinge,-4.16298167076e-05,0.000111366097233
272491000000,4955,272491000000,,right_wheel_hinge,left_wheel_hinge,-4.16384401651e-05,0.000111388402893
272541000000,4956,272541000000,,right_wheel_hinge,left_wheel_hinge,-4.16470636306e-05,0.000111410708564
272590000000,4957,272590000000,,right_wheel_hinge,left_wheel_hinge,-4.16556871059e-05,0.000111433014246
272640000000,4958,272640000000,,right_wheel_hinge,left_wheel_hinge,-4.16643105901e-05,0.000111455319936
272690000000,4959,272690000000,,right_wheel_hinge,left_wheel_hinge,-4.16729340822e-05,0.000111477625639
272736000000,4960,272736000000,,right_wheel_hinge,left_wheel_hinge,-4.16815575841e-05,0.000111499931349
272791000000,4961,272791000000,,right_wheel_hinge,left_wheel_hinge,-4.16901810949e-05,0.000111522237072
272841000000,4962,272841000000,,right_wheel_hinge,left_wheel_hinge,-4.16988046137e-05,0.000111544542802
272890000000,4963,272890000000,,right_wheel_hinge,left_wheel_hinge,-4.17074281422e-05,0.000111566848545
272940000000,4964,272940000000,,right_wheel_hinge,left_wheel_hinge,-4.17160516797e-05,0.000111589154296
272990000000,4965,272990000000,,right_wheel_hinge,left_wheel_hinge,-4.1724675226e-05,0.00011161146006
273041000000,4966,273041000000,,right_wheel_hinge,left_wheel_hinge,-4.17332987812e-05,0.000111633765831
273090000000,4967,273090000000,,right_wheel_hinge,left_wheel_hinge,-4.17419223444e-05,0.000111656071616
273141000000,4968,273141000000,,right_wheel_hinge,left_wheel_hinge,-4.17505459183e-05,0.000111678377408
273190000000,4969,273190000000,,right_wheel_hinge,left_wheel_hinge,-4.17591695001e-05,0.000111700683212
273241000000,4970,273241000000,,right_wheel_hinge,left_wheel_hinge,-4.17677930926e-05,0.000111722989025
273290000000,4971,273290000000,,right_wheel_hinge,left_wheel_hinge,-4.17764166922e-05,0.000111745294848
273338000000,4972,273338000000,,right_wheel_hinge,left_wheel_hinge,-4.17850403016e-05,0.000111767600683
273391000000,4973,273391000000,,right_wheel_hinge,left_wheel_hinge,-4.1793663919e-05,0.000111789906529
273440000000,4974,273440000000,,right_wheel_hinge,left_wheel_hinge,-4.18022875461e-05,0.000111812212382
273490000000,4975,273490000000,,right_wheel_hinge,left_wheel_hinge,-4.18109111822e-05,0.000111834518247
273539000000,4976,273539000000,,right_wheel_hinge,left_wheel_hinge,-4.1819534828e-05,0.000111856824121
273591000000,4977,273591000000,,right_wheel_hinge,left_wheel_hinge,0.00595405427968,0.00605270811055
273641000000,4978,273641000000,,right_wheel_hinge,left_wheel_hinge,0.0236982187468,0.0236039399383
273691000000,4979,273691000000,,right_wheel_hinge,left_wheel_hinge,0.0531959308036,0.0527678208805
273740000000,4980,273740000000,,right_wheel_hinge,left_wheel_hinge,0.0944471915365,0.0935443358727
273791000000,4981,273791000000,,right_wheel_hinge,left_wheel_hinge,0.14745200375,0.145933464807
273839000000,4982,273839000000,,right_wheel_hinge,left_wheel_hinge,0.212210373064,0.209935183719
273891000000,4983,273891000000,,right_wheel_hinge,left_wheel_hinge,0.288724382771,0.285549801025
273941000000,4984,273941000000,,right_wheel_hinge,left_wheel_hinge,0.376996169854,0.372775425072
273990000000,4985,273990000000,,right_wheel_hinge,left_wheel_hinge,0.477021797205,0.471613714311
274041000000,4986,274041000000,,right_wheel_hinge,left_wheel_hinge,0.58880128826,0.582064634359
274090000000,4987,274090000000,,right_wheel_hinge,left_wheel_hinge,0.712334663207,0.70412814547
274140000000,4988,274140000000,,right_wheel_hinge,left_wheel_hinge,0.847621937109,0.837804205157
274190000000,4989,274190000000,,right_wheel_hinge,left_wheel_hinge,0.994673125421,0.983095104027
274239000000,4990,274239000000,,right_wheel_hinge,left_wheel_hinge,1.15349145097,1.1400177946
274290000000,4991,274290000000,,right_wheel_hinge,left_wheel_hinge,1.32385330835,1.30867098459
274341000000,4992,274341000000,,right_wheel_hinge,left_wheel_hinge,1.50582377171,1.48908135906
274390000000,4993,274390000000,,right_wheel_hinge,left_wheel_hinge,1.69940692199,1.68124490276
274440000000,4994,274440000000,,right_wheel_hinge,left_wheel_hinge,1.90460273367,1.8851616239
274490000000,4995,274490000000,,right_wheel_hinge,left_wheel_hinge,2.1214111521,2.10083159871
274541000000,4996,274541000000,,right_wheel_hinge,left_wheel_hinge,2.3498320859,2.32825498104
274590000000,4997,274590000000,,right_wheel_hinge,left_wheel_hinge,2.58986540291,2.56743200075
274640000000,4998,274640000000,,right_wheel_hinge,left_wheel_hinge,2.84151092938,2.81836295066
274691000000,4999,274691000000,,right_wheel_hinge,left_wheel_hinge,3.10476845414,3.08104816135
274740000000,5000,274740000000,,right_wheel_hinge,left_wheel_hinge,3.37963773973,3.35548796589
274791000000,5001,274791000000,,right_wheel_hinge,left_wheel_hinge,3.66612147329,3.64168228154
274841000000,5002,274841000000,,right_wheel_hinge,left_wheel_hinge,3.9642780958,3.93957874283
274890000000,5003,274890000000,,right_wheel_hinge,left_wheel_hinge,4.27416571131,4.24910361814
274940000000,5004,274940000000,,right_wheel_hinge,left_wheel_hinge,4.5958046735,4.570242758
274990000000,5005,274990000000,,right_wheel_hinge,left_wheel_hinge,4.92919707137,4.90300359094
275038000000,5006,275038000000,,right_wheel_hinge,left_wheel_hinge,5.27433809339,5.24737365561
275090000000,5007,275090000000,,right_wheel_hinge,left_wheel_hinge,5.63122962324,5.60335460037
275140000000,5008,275140000000,,right_wheel_hinge,left_wheel_hinge,5.99987204178,5.97094583712
275188000000,5009,275188000000,,right_wheel_hinge,left_wheel_hinge,6.38026615,6.3501470356
275240000000,5010,275240000000,,right_wheel_hinge,left_wheel_hinge,6.77241878802,6.74096145119
275291000000,5011,275291000000,,right_wheel_hinge,left_wheel_hinge,7.17633187428,7.14338793766
275341000000,5012,275341000000,,right_wheel_hinge,left_wheel_hinge,7.59196804932,7.55744846834
275387000000,5013,275387000000,,right_wheel_hinge,left_wheel_hinge,8.01920615949,7.98324058465
275440000000,5014,275440000000,,right_wheel_hinge,left_wheel_hinge,8.45805743767,8.4207846771
275490000000,5015,275490000000,,right_wheel_hinge,left_wheel_hinge,8.9085212081,8.87008171381
275540000000,5016,275540000000,,right_wheel_hinge,left_wheel_hinge,9.37059650135,9.33113310016
275591000000,5017,275591000000,,right_wheel_hinge,left_wheel_hinge,9.84421821147,9.80336192165
275640000000,5018,275640000000,,right_wheel_hinge,left_wheel_hinge,10.3282695623,10.2783781888
275691000000,5019,275691000000,,right_wheel_hinge,left_wheel_hinge,10.8201093201,10.7533804844
275741000000,5020,275741000000,,right_wheel_hinge,left_wheel_hinge,11.3183976675,11.2283878224
275790000000,5021,275790000000,,right_wheel_hinge,left_wheel_hinge,11.8237196054,11.7033883366
275840000000,5022,275840000000,,right_wheel_hinge,left_wheel_hinge,12.3368706756,12.1783847035
275890000000,5023,275890000000,,right_wheel_hinge,left_wheel_hinge,12.8576865234,12.6533860266
275940000000,5024,275940000000,,right_wheel_hinge,left_wheel_hinge,13.3826809104,13.1283848218
275991000000,5025,275991000000,,right_wheel_hinge,left_wheel_hinge,13.9076760565,13.6033811069
276040000000,5026,276040000000,,right_wheel_hinge,left_wheel_hinge,14.4326656824,14.0783751133
276088000000,5027,276088000000,,right_wheel_hinge,left_wheel_hinge,14.9576632146,14.5533689723
276140000000,5028,276140000000,,right_wheel_hinge,left_wheel_hinge,15.4826605615,15.0283627223
276191000000,5029,276191000000,,right_wheel_hinge,left_wheel_hinge,16.007674993,15.5033579233
276240000000,5030,276240000000,,right_wheel_hinge,left_wheel_hinge,16.5326724698,15.9783509389
276289000000,5031,276289000000,,right_wheel_hinge,left_wheel_hinge,17.0576559855,16.45335581
276340000000,5032,276340000000,,right_wheel_hinge,left_wheel_hinge,17.5826468576,16.9283615586
276391000000,5033,276391000000,,right_wheel_hinge,left_wheel_hinge,18.1076416365,17.4033576283
276440000000,5034,276440000000,,right_wheel_hinge,left_wheel_hinge,18.6326377618,17.8783549152
276491000000,5035,276491000000,,right_wheel_hinge,left_wheel_hinge,19.157633319,18.3533518862
276539000000,5036,276539000000,,right_wheel_hinge,left_wheel_hinge,19.6826293221,18.8283485684
276591000000,5037,276591000000,,right_wheel_hinge,left_wheel_hinge,20.2076223006,19.303343528
276641000000,5038,276641000000,,right_wheel_hinge,left_wheel_hinge,20.7325974614,19.7783369544
276691000000,5039,276691000000,,right_wheel_hinge,left_wheel_hinge,21.2576054831,20.2533262766
276740000000,5040,276740000000,,right_wheel_hinge,left_wheel_hinge,21.78261802,20.7283164373
276791000000,5041,276791000000,,right_wheel_hinge,left_wheel_hinge,22.3076405508,21.2033096121
276840000000,5042,276840000000,,right_wheel_hinge,left_wheel_hinge,22.8326368631,21.6783058983
276891000000,5043,276891000000,,right_wheel_hinge,left_wheel_hinge,23.357632603,22.1533028135
276941000000,5044,276941000000,,right_wheel_hinge,left_wheel_hinge,23.882627042,22.6282989198
276990000000,5045,276990000000,,right_wheel_hinge,left_wheel_hinge,24.407601265,23.1033189757
277040000000,5046,277040000000,,right_wheel_hinge,left_wheel_hinge,24.9325972074,23.5783166854
277090000000,5047,277090000000,,right_wheel_hinge,left_wheel_hinge,25.4575918503,24.0533128099
277140000000,5048,277140000000,,right_wheel_hinge,left_wheel_hinge,25.9825837176,24.5283073511
277191000000,5049,277191000000,,right_wheel_hinge,left_wheel_hinge,26.5075788675,25.0033036385
277240000000,5050,277240000000,,right_wheel_hinge,left_wheel_hinge,27.0325458905,25.4782966054
277290000000,5051,277290000000,,right_wheel_hinge,left_wheel_hinge,27.5575419477,25.9532918094
277340000000,5052,277340000000,,right_wheel_hinge,left_wheel_hinge,28.0825482906,26.4282845728
277389000000,5053,277389000000,,right_wheel_hinge,left_wheel_hinge,28.6075467446,26.9032766272
277441000000,5054,277441000000,,right_wheel_hinge,left_wheel_hinge,29.1325432866,27.3782715921
277490000000,5055,277490000000,,right_wheel_hinge,left_wheel_hinge,29.6575379426,27.8532674526
277540000000,5056,277540000000,,right_wheel_hinge,left_wheel_hinge,30.1825330795,28.3282638859
277590000000,5057,277590000000,,right_wheel_hinge,left_wheel_hinge,30.7075268976,28.8032621847
277640000000,5058,277640000000,,right_wheel_hinge,left_wheel_hinge,31.2324951234,29.2782917946
277690000000,5059,277690000000,,right_wheel_hinge,left_wheel_hinge,31.7574883575,29.7532922538
277741000000,5060,277741000000,,right_wheel_hinge,left_wheel_hinge,32.2824835781,30.22828923
277790000000,5061,277790000000,,right_wheel_hinge,left_wheel_hinge,32.8074752448,30.7032829226
277839000000,5062,277839000000,,right_wheel_hinge,left_wheel_hinge,33.3324552153,31.178279609
277890000000,5063,277890000000,,right_wheel_hinge,left_wheel_hinge,33.8574651912,31.6532744094
277940000000,5064,277940000000,,right_wheel_hinge,left_wheel_hinge,34.38246745,32.1282677907
277990000000,5065,277990000000,,right_wheel_hinge,left_wheel_hinge,34.9074829665,32.603264378
278040000000,5066,278040000000,,right_wheel_hinge,left_wheel_hinge,35.4324768398,33.0782540567
278090000000,5067,278090000000,,right_wheel_hinge,left_wheel_hinge,35.957471909,33.5532504265
278141000000,5068,278141000000,,right_wheel_hinge,left_wheel_hinge,36.4824669492,34.0282467549
278190000000,5069,278190000000,,right_wheel_hinge,left_wheel_hinge,37.0074620051,34.5032431315
278241000000,5070,278241000000,,right_wheel_hinge,left_wheel_hinge,37.5324566167,34.9782388438
278291000000,5071,278291000000,,right_wheel_hinge,left_wheel_hinge,38.0574370587,35.4532536987
278338000000,5072,278338000000,,right_wheel_hinge,left_wheel_hinge,38.5824278977,35.9282496296
278391000000,5073,278391000000,,right_wheel_hinge,left_wheel_hinge,39.1074230563,36.4032459288
278440000000,5074,278440000000,,right_wheel_hinge,left_wheel_hinge,39.6324202948,36.8782366952
278490000000,5075,278490000000,,right_wheel_hinge,left_wheel_hinge,40.1574329085,37.3532303556
278540000000,5076,278540000000,,right_wheel_hinge,left_wheel_hinge,40.6824298374,37.8282228046
278590000000,5077,278590000000,,right_wheel_hinge,left_wheel_hinge,41.2074341991,38.3032033428
278640000000,5078,278640000000,,right_wheel_hinge,left_wheel_hinge,41.7324222614,38.7782113
278690000000,5079,278690000000,,right_wheel_hinge,left_wheel_hinge,42.2574191008,39.253206589
278740000000,5080,278740000000,,right_wheel_hinge,left_wheel_hinge,42.7824141335,39.7282030711
278791000000,5081,278791000000,,right_wheel_hinge,left_wheel_hinge,43.3074093034,40.2031996508
278840000000,5082,278840000000,,right_wheel_hinge,left_wheel_hinge,43.8324074756,40.6781990102
278891000000,5083,278891000000,,right_wheel_hinge,left_wheel_hinge,44.3574027884,41.153195659
278940000000,5084,278940000000,,right_wheel_hinge,left_wheel_hinge,44.8823971958,41.62820007
278990000000,5085,278990000000,,right_wheel_hinge,left_wheel_hinge,45.4073923694,42.1031963769
279041000000,5086,279041000000,,right_wheel_hinge,left_wheel_hinge,45.9323808173,42.5781909788
279091000000,5087,279091000000,,right_wheel_hinge,left_wheel_hinge,46.4573770461,43.0531860288
279141000000,5088,279141000000,,right_wheel_hinge,left_wheel_hinge,46.9823754604,43.5281791333
279191000000,5089,279191000000,,right_wheel_hinge,left_wheel_hinge,47.5073810564,44.0031740382
279240000000,5090,279240000000,,right_wheel_hinge,left_wheel_hinge,48.0323762485,44.4781703813
279290000000,5091,279290000000,,right_wheel_hinge,left_wheel_hinge,48.5573361623,44.9532066218
279341000000,5092,279341000000,,right_wheel_hinge,left_wheel_hinge,49.0823383666,45.428183382
279390000000,5093,279390000000,,right_wheel_hinge,left_wheel_hinge,49.607333286,45.9031795877
279441000000,5094,279441000000,,right_wheel_hinge,left_wheel_hinge,50.1323281935,46.3781757513
279490000000,5095,279490000000,,right_wheel_hinge,left_wheel_hinge,50.6573232534,46.8531720667
279540000000,5096,279540000000,,right_wheel_hinge,left_wheel_hinge,51.1823180282,47.3281681877
279590000000,5097,279590000000,,right_wheel_hinge,left_wheel_hinge,51.7073131698,47.8031644194
279640000000,5098,279640000000,,right_wheel_hinge,left_wheel_hinge,52.2323120008,48.278156948
279690000000,5099,279690000000,,right_wheel_hinge,left_wheel_hinge,52.7573052828,48.7531533149
279740000000,5100,279740000000,,right_wheel_hinge,left_wheel_hinge,53.2823013263,49.2281474641
279791000000,5101,279791000000,,right_wheel_hinge,left_wheel_hinge,53.8073123605,49.703143346
279840000000,5102,279840000000,,right_wheel_hinge,left_wheel_hinge,54.3323074356,50.1781396199
279890000000,5103,279890000000,,right_wheel_hinge,left_wheel_hinge,54.8572764212,50.6531625702
279940000000,5104,279940000000,,right_wheel_hinge,left_wheel_hinge,55.3822669023,51.1281646229
279991000000,5105,279991000000,,right_wheel_hinge,left_wheel_hinge,55.9072690428,51.6031454495
280040000000,5106,280040000000,,right_wheel_hinge,left_wheel_hinge,56.4322639998,52.0781419145
280090000000,5107,280090000000,,right_wheel_hinge,left_wheel_hinge,56.9572590132,52.5531382554
280141000000,5108,280141000000,,right_wheel_hinge,left_wheel_hinge,57.4822541659,53.0281347309
280190000000,5109,280190000000,,right_wheel_hinge,left_wheel_hinge,58.0072443165,53.5031334498
280240000000,5110,280240000000,,right_wheel_hinge,left_wheel_hinge,58.5322590638,53.9781221837
280290000000,5111,280290000000,,right_wheel_hinge,left_wheel_hinge,59.0572564347,54.4531207482
280341000000,5112,280341000000,,right_wheel_hinge,left_wheel_hinge,59.5822492752,54.9281161052
280391000000,5113,280391000000,,right_wheel_hinge,left_wheel_hinge,60.1072576031,55.4031200844
280440000000,5114,280440000000,,right_wheel_hinge,left_wheel_hinge,60.6322527853,55.8781164158
280490000000,5115,280490000000,,right_wheel_hinge,left_wheel_hinge,61.1572358417,56.3531296452
280540000000,5116,280540000000,,right_wheel_hinge,left_wheel_hinge,61.682217928,56.8281406025
280590000000,5117,280590000000,,right_wheel_hinge,left_wheel_hinge,62.207212409,57.30313656
280640000000,5118,280640000000,,right_wheel_hinge,left_wheel_hinge,62.7322155738,57.7781040823
280690000000,5119,280690000000,,right_wheel_hinge,left_wheel_hinge,63.2572151704,58.2531041864
280740000000,5120,280740000000,,right_wheel_hinge,left_wheel_hinge,63.7822101722,58.7281003695
280790000000,5121,280790000000,,right_wheel_hinge,left_wheel_hinge,64.3072035304,59.2031048139
280840000000,5122,280840000000,,right_wheel_hinge,left_wheel_hinge,64.8321879963,59.6780996102
280891000000,5123,280891000000,,right_wheel_hinge,left_wheel_hinge,65.3571792318,60.1530898459
280940000000,5124,280940000000,,right_wheel_hinge,left_wheel_hinge,65.8821881079,60.6280843493
280991000000,5125,280991000000,,right_wheel_hinge,left_wheel_hinge,66.4071855311,61.1030764364
281040000000,5126,281040000000,,right_wheel_hinge,left_wheel_hinge,66.9321808978,61.5780729921
281090000000,5127,281090000000,,right_wheel_hinge,left_wheel_hinge,67.4571648227,62.053087029
281141000000,5128,281141000000,,right_wheel_hinge,left_wheel_hinge,67.9821542142,62.5280900388
281191000000,5129,281191000000,,right_wheel_hinge,left_wheel_hinge,68.5071470417,63.0030868011
281240000000,5130,281240000000,,right_wheel_hinge,left_wheel_hinge,69.0321420987,63.4780837049
281291000000,5131,281291000000,,right_wheel_hinge,left_wheel_hinge,69.5571441331,63.9530555154
281340000000,5132,281340000000,,right_wheel_hinge,left_wheel_hinge,70.0821440569,64.4280444281
281391000000,5133,281391000000,,right_wheel_hinge,left_wheel_hinge,70.6071410887,64.9030406676
281440000000,5134,281440000000,,right_wheel_hinge,left_wheel_hinge,71.1321425279,65.3780402101
281488000000,5135,281488000000,,right_wheel_hinge,left_wheel_hinge,71.6571365957,65.8530351422
281540000000,5136,281540000000,,right_wheel_hinge,left_wheel_hinge,72.1821332436,66.3280298348
281589000000,5137,281589000000,,right_wheel_hinge,left_wheel_hinge,72.707125192,66.8030193496
281641000000,5138,281641000000,,right_wheel_hinge,left_wheel_hinge,73.2321202481,67.2780155712
281691000000,5139,281691000000,,right_wheel_hinge,left_wheel_hinge,73.7571006156,67.7530563463
281740000000,5140,281740000000,,right_wheel_hinge,left_wheel_hinge,74.2820687952,68.228075269
281791000000,5141,281791000000,,right_wheel_hinge,left_wheel_hinge,74.8070638279,68.703071673
281841000000,5142,281841000000,,right_wheel_hinge,left_wheel_hinge,75.3320588435,69.1780680689
281890000000,5143,281890000000,,right_wheel_hinge,left_wheel_hinge,75.8570540406,69.6530646783
281938000000,5144,281938000000,,right_wheel_hinge,left_wheel_hinge,76.3820502939,70.1280611811
281991000000,5145,281991000000,,right_wheel_hinge,left_wheel_hinge,76.9070299027,70.6030567756
282040000000,5146,282040000000,,right_wheel_hinge,left_wheel_hinge,77.4320112931,71.0780537457
282091000000,5147,282091000000,,right_wheel_hinge,left_wheel_hinge,77.9570074738,71.5530473431
282141000000,5148,282141000000,,right_wheel_hinge,left_wheel_hinge,78.4820230725,72.0280394303
282190000000,5149,282190000000,,right_wheel_hinge,left_wheel_hinge,79.0070386022,72.5030480073
282240000000,5150,282240000000,,right_wheel_hinge,left_wheel_hinge,79.5320338678,72.9780444362
282290000000,5151,282290000000,,right_wheel_hinge,left_wheel_hinge,80.0570181341,73.4530469749
282340000000,5152,282340000000,,right_wheel_hinge,left_wheel_hinge,80.5820121997,73.9280429614
282390000000,5153,282390000000,,right_wheel_hinge,left_wheel_hinge,81.1070075774,74.4030396655
282440000000,5154,282440000000,,right_wheel_hinge,left_wheel_hinge,81.6320029794,74.8780363499
282491000000,5155,282491000000,,right_wheel_hinge,left_wheel_hinge,82.1569930671,75.353028429
282540000000,5156,282540000000,,right_wheel_hinge,left_wheel_hinge,82.6819873918,75.8280242743
282590000000,5157,282590000000,,right_wheel_hinge,left_wheel_hinge,83.2069825325,76.3030205222
282641000000,5158,282641000000,,right_wheel_hinge,left_wheel_hinge,83.7319746803,76.7780162677
282690000000,5159,282690000000,,right_wheel_hinge,left_wheel_hinge,84.2569806487,77.2530114686
282737000000,5160,282737000000,,right_wheel_hinge,left_wheel_hinge,84.7819922922,77.7280040806
282790000000,5161,282790000000,,right_wheel_hinge,left_wheel_hinge,85.3069953299,78.2029986402
282840000000,5162,282840000000,,right_wheel_hinge,left_wheel_hinge,85.8319919922,78.6779944705
282891000000,5163,282891000000,,right_wheel_hinge,left_wheel_hinge,86.3569852148,79.1529914109
282940000000,5164,282940000000,,right_wheel_hinge,left_wheel_hinge,86.881935004,79.6280594253
282990000000,5165,282990000000,,right_wheel_hinge,left_wheel_hinge,87.4069303157,80.1030565574
283040000000,5166,283040000000,,right_wheel_hinge,left_wheel_hinge,87.9319252025,80.578052782
283090000000,5167,283090000000,,right_wheel_hinge,left_wheel_hinge,88.456924206,81.0530517591
283141000000,5168,283141000000,,right_wheel_hinge,left_wheel_hinge,88.9819225219,81.5280497186
283190000000,5169,283190000000,,right_wheel_hinge,left_wheel_hinge,89.5069172816,82.0030455087
283241000000,5170,283241000000,,right_wheel_hinge,left_wheel_hinge,90.0318867111,82.4780379716
283291000000,5171,283291000000,,right_wheel_hinge,left_wheel_hinge,90.5568825368,82.9530329397
283341000000,5172,283341000000,,right_wheel_hinge,left_wheel_hinge,91.0818872682,83.4280275089
283391000000,5173,283391000000,,right_wheel_hinge,left_wheel_hinge,91.6069162252,83.9030271692
283440000000,5174,283440000000,,right_wheel_hinge,left_wheel_hinge,92.1319119318,84.3780232158
283489000000,5175,283489000000,,right_wheel_hinge,left_wheel_hinge,92.6569078482,84.8530202751
283540000000,5176,283540000000,,right_wheel_hinge,left_wheel_hinge,93.1819030514,85.3280170373
283590000000,5177,283590000000,,right_wheel_hinge,left_wheel_hinge,93.7068677099,85.8030586707
283640000000,5178,283640000000,,right_wheel_hinge,left_wheel_hinge,94.2318610446,86.278056593
283690000000,5179,283690000000,,right_wheel_hinge,left_wheel_hinge,94.756855729,86.7530524558
283741000000,5180,283741000000,,right_wheel_hinge,left_wheel_hinge,95.281850338,87.2280482539
283790000000,5181,283790000000,,right_wheel_hinge,left_wheel_hinge,95.8068452253,87.7030441355
283837000000,5182,283837000000,,right_wheel_hinge,left_wheel_hinge,96.3318301586,88.1780288662
283891000000,5183,283891000000,,right_wheel_hinge,left_wheel_hinge,96.8568339219,88.6530229393
283941000000,5184,283941000000,,right_wheel_hinge,left_wheel_hinge,97.3818464311,89.1280165214
283990000000,5185,283990000000,,right_wheel_hinge,left_wheel_hinge,97.9068474145,89.6030029461
284041000000,5186,284041000000,,right_wheel_hinge,left_wheel_hinge,98.4318443778,90.0779981031
284090000000,5187,284090000000,,right_wheel_hinge,left_wheel_hinge,98.9568396357,90.5529947284
284140000000,5188,284140000000,,right_wheel_hinge,left_wheel_hinge,99.4818347499,91.0279911682
284190000000,5189,284190000000,,right_wheel_hinge,left_wheel_hinge,100.006830081,91.5029880011
284240000000,5190,284240000000,,right_wheel_hinge,left_wheel_hinge,100.531807605,91.9780107591
284289000000,5191,284289000000,,right_wheel_hinge,left_wheel_hinge,101.056796632,92.4530095265
284340000000,5192,284340000000,,right_wheel_hinge,left_wheel_hinge,101.581791337,92.9280053205
284390000000,5193,284390000000,,right_wheel_hinge,left_wheel_hinge,102.10678661,93.4030015314
284441000000,5194,284441000000,,right_wheel_hinge,left_wheel_hinge,102.631782824,93.8779895691
284491000000,5195,284491000000,,right_wheel_hinge,left_wheel_hinge,103.156777553,94.3529845724
284540000000,5196,284540000000,,right_wheel_hinge,left_wheel_hinge,103.681802738,94.8279786303
284590000000,5197,284590000000,,right_wheel_hinge,left_wheel_hinge,104.206796547,95.3029716651
284640000000,5198,284640000000,,right_wheel_hinge,left_wheel_hinge,104.731793462,95.7779633416
284691000000,5199,284691000000,,right_wheel_hinge,left_wheel_hinge,105.256788423,96.2529599445
284740000000,5200,284740000000,,right_wheel_hinge,left_wheel_hinge,105.781783491,96.7279562703
284790000000,5201,284790000000,,right_wheel_hinge,left_wheel_hinge,106.306778594,97.2029526674
284841000000,5202,284841000000,,right_wheel_hinge,left_wheel_hinge,106.831773806,97.6779493893
284888000000,5203,284888000000,,right_wheel_hinge,left_wheel_hinge,107.356765319,98.152952483
284941000000,5204,284941000000,,right_wheel_hinge,left_wheel_hinge,107.881755276,98.6279549272
284991000000,5205,284991000000,,right_wheel_hinge,left_wheel_hinge,108.406750826,99.1029511096
285041000000,5206,285041000000,,right_wheel_hinge,left_wheel_hinge,108.931739051,99.57794126
285090000000,5207,285090000000,,right_wheel_hinge,left_wheel_hinge,109.456733924,100.052935719
285141000000,5208,285141000000,,right_wheel_hinge,left_wheel_hinge,109.981742048,100.527929564
285190000000,5209,285190000000,,right_wheel_hinge,left_wheel_hinge,110.506746062,101.002925564
285240000000,5210,285240000000,,right_wheel_hinge,left_wheel_hinge,111.031739525,101.477929541
285290000000,5211,285290000000,,right_wheel_hinge,left_wheel_hinge,111.556735573,101.952926777
285341000000,5212,285341000000,,right_wheel_hinge,left_wheel_hinge,112.081730643,102.427923135
285391000000,5213,285391000000,,right_wheel_hinge,left_wheel_hinge,112.606725634,102.902919536
285440000000,5214,285440000000,,right_wheel_hinge,left_wheel_hinge,113.131720761,103.377915927
285487000000,5215,285487000000,,right_wheel_hinge,left_wheel_hinge,113.656716705,103.852913015
285540000000,5216,285540000000,,right_wheel_hinge,left_wheel_hinge,114.181714568,104.327913109
285591000000,5217,285591000000,,right_wheel_hinge,left_wheel_hinge,114.706698225,104.802908858
285640000000,5218,285640000000,,right_wheel_hinge,left_wheel_hinge,115.231695349,105.277903297
285691000000,5219,285691000000,,right_wheel_hinge,left_wheel_hinge,115.756691133,105.75290142
285741000000,5220,285741000000,,right_wheel_hinge,left_wheel_hinge,116.28168716,106.227896004
285790000000,5221,285790000000,,right_wheel_hinge,left_wheel_hinge,116.806680939,106.702898052
285840000000,5222,285840000000,,right_wheel_hinge,left_wheel_hinge,117.331675592,107.177894949
285890000000,5223,285890000000,,right_wheel_hinge,left_wheel_hinge,117.856639385,107.652935004
285940000000,5224,285940000000,,right_wheel_hinge,left_wheel_hinge,118.381644685,108.127911571
285990000000,5225,285990000000,,right_wheel_hinge,left_wheel_hinge,118.906643546,108.602912114
286040000000,5226,286040000000,,right_wheel_hinge,left_wheel_hinge,119.431638608,109.077908524
286091000000,5227,286091000000,,right_wheel_hinge,left_wheel_hinge,119.95663482,109.552905819
286140000000,5228,286140000000,,right_wheel_hinge,left_wheel_hinge,120.481631042,110.027903127
286191000000,5229,286191000000,,right_wheel_hinge,left_wheel_hinge,121.006603174,110.502900068
286240000000,5230,286240000000,,right_wheel_hinge,left_wheel_hinge,121.531602307,110.977894589
286291000000,5231,286291000000,,right_wheel_hinge,left_wheel_hinge,122.056598315,111.452887717
286340000000,5232,286340000000,,right_wheel_hinge,left_wheel_hinge,122.581601107,111.927881357
286391000000,5233,286391000000,,right_wheel_hinge,left_wheel_hinge,123.106602096,112.402878747
286440000000,5234,286440000000,,right_wheel_hinge,left_wheel_hinge,123.631596927,112.877874909
286491000000,5235,286491000000,,right_wheel_hinge,left_wheel_hinge,124.156546851,113.35294033
286540000000,5236,286540000000,,right_wheel_hinge,left_wheel_hinge,124.681540698,113.827937355
286591000000,5237,286591000000,,right_wheel_hinge,left_wheel_hinge,125.206565458,114.302811685
286640000000,5238,286640000000,,right_wheel_hinge,left_wheel_hinge,125.73156053,114.777807997
286691000000,5239,286691000000,,right_wheel_hinge,left_wheel_hinge,126.256555419,115.25280413
286739000000,5240,286739000000,,right_wheel_hinge,left_wheel_hinge,126.781555767,115.72780565
286791000000,5241,286791000000,,right_wheel_hinge,left_wheel_hinge,127.306524436,116.202794447
286840000000,5242,286840000000,,right_wheel_hinge,left_wheel_hinge,127.831524393,116.677785782
286891000000,5243,286891000000,,right_wheel_hinge,left_wheel_hinge,128.356516592,117.152780842
286941000000,5244,286941000000,,right_wheel_hinge,left_wheel_hinge,128.881521069,117.627776433
286991000000,5245,286991000000,,right_wheel_hinge,left_wheel_hinge,129.406515171,118.102772164
287040000000,5246,287040000000,,right_wheel_hinge,left_wheel_hinge,129.9315103,118.5777685
287090000000,5247,287090000000,,right_wheel_hinge,left_wheel_hinge,130.456469974,119.052843396
287140000000,5248,287140000000,,right_wheel_hinge,left_wheel_hinge,130.981461304,119.527841201
287191000000,5249,287191000000,,right_wheel_hinge,left_wheel_hinge,131.506461375,120.002844164
287238000000,5250,287238000000,,right_wheel_hinge,left_wheel_hinge,132.031469471,120.477813739
287287000000,5251,287287000000,,right_wheel_hinge,left_wheel_hinge,132.556468503,120.952806564
287341000000,5252,287341000000,,right_wheel_hinge,left_wheel_hinge,133.081463455,121.427802739
287390000000,5253,287390000000,,right_wheel_hinge,left_wheel_hinge,133.606443272,121.902813291
287441000000,5254,287441000000,,right_wheel_hinge,left_wheel_hinge,134.13145051,122.377807481
287490000000,5255,287490000000,,right_wheel_hinge,left_wheel_hinge,134.656449346,122.852802044
287540000000,5256,287540000000,,right_wheel_hinge,left_wheel_hinge,135.181453618,123.327797294
287591000000,5257,287591000000,,right_wheel_hinge,left_wheel_hinge,135.706443863,123.802792371
287641000000,5258,287641000000,,right_wheel_hinge,left_wheel_hinge,136.231438663,124.277789213
287691000000,5259,287691000000,,right_wheel_hinge,left_wheel_hinge,136.756395266,124.752824874
287741000000,5260,287741000000,,right_wheel_hinge,left_wheel_hinge,137.281389317,125.227821447
287791000000,5261,287791000000,,right_wheel_hinge,left_wheel_hinge,137.80638368,125.702816886
287841000000,5262,287841000000,,right_wheel_hinge,left_wheel_hinge,138.331379228,126.177813939
287890000000,5263,287890000000,,right_wheel_hinge,left_wheel_hinge,138.856376688,126.652812055
287940000000,5264,287940000000,,right_wheel_hinge,left_wheel_hinge,139.381385842,127.127725138
287991000000,5265,287991000000,,right_wheel_hinge,left_wheel_hinge,139.906373766,127.602721576
288040000000,5266,288040000000,,right_wheel_hinge,left_wheel_hinge,140.431371525,128.077715873
288090000000,5267,288090000000,,right_wheel_hinge,left_wheel_hinge,140.956368778,128.552710766
288140000000,5268,288140000000,,right_wheel_hinge,left_wheel_hinge,141.481368656,129.027703961
288191000000,5269,288191000000,,right_wheel_hinge,left_wheel_hinge,142.006373626,129.50270021
288241000000,5270,288241000000,,right_wheel_hinge,left_wheel_hinge,142.531360962,129.977696996
288290000000,5271,288290000000,,right_wheel_hinge,left_wheel_hinge,143.056340077,130.452715278
288340000000,5272,288340000000,,right_wheel_hinge,left_wheel_hinge,143.581334564,130.927711992
288391000000,5273,288391000000,,right_wheel_hinge,left_wheel_hinge,144.106332087,131.402710849
288440000000,5274,288440000000,,right_wheel_hinge,left_wheel_hinge,144.631326797,131.877706429
288490000000,5275,288490000000,,right_wheel_hinge,left_wheel_hinge,145.156316001,132.352696899
288540000000,5276,288540000000,,right_wheel_hinge,left_wheel_hinge,145.681311122,132.827693159
288591000000,5277,288591000000,,right_wheel_hinge,left_wheel_hinge,146.20629306,133.302689283
288640000000,5278,288640000000,,right_wheel_hinge,left_wheel_hinge,146.731308709,133.777678909
288691000000,5279,288691000000,,right_wheel_hinge,left_wheel_hinge,147.256306468,134.25267323
288740000000,5280,288740000000,,right_wheel_hinge,left_wheel_hinge,147.781321127,134.727666984
288790000000,5281,288790000000,,right_wheel_hinge,left_wheel_hinge,148.306315443,135.202653602
288841000000,5282,288841000000,,right_wheel_hinge,left_wheel_hinge,148.831310735,135.677650411
288890000000,5283,288890000000,,right_wheel_hinge,left_wheel_hinge,149.356278578,136.152656417
288940000000,5284,288940000000,,right_wheel_hinge,left_wheel_hinge,149.881273192,136.62765298
288990000000,5285,288990000000,,right_wheel_hinge,left_wheel_hinge,150.406268296,137.102649308
289040000000,5286,289040000000,,right_wheel_hinge,left_wheel_hinge,150.931263385,137.577645698
289091000000,5287,289091000000,,right_wheel_hinge,left_wheel_hinge,151.456258661,138.052642301
289140000000,5288,289140000000,,right_wheel_hinge,left_wheel_hinge,151.981253735,138.527638494
289190000000,5289,289190000000,,right_wheel_hinge,left_wheel_hinge,152.506232486,139.002634539
289240000000,5290,289240000000,,right_wheel_hinge,left_wheel_hinge,153.0312235,139.477628782
289290000000,5291,289290000000,,right_wheel_hinge,left_wheel_hinge,153.556226835,139.95262349
289339000000,5292,289339000000,,right_wheel_hinge,left_wheel_hinge,154.081259838,140.427613753
289390000000,5293,289390000000,,right_wheel_hinge,left_wheel_hinge,154.606257013,140.902605971
289440000000,5294,289440000000,,right_wheel_hinge,left_wheel_hinge,155.131252577,141.377602965
289490000000,5295,289490000000,,right_wheel_hinge,left_wheel_hinge,155.656248027,141.852599344
289540000000,5296,289540000000,,right_wheel_hinge,left_wheel_hinge,156.181227951,142.327614349
289586000000,5297,289586000000,,right_wheel_hinge,left_wheel_hinge,156.706220889,142.802612787
289640000000,5298,289640000000,,right_wheel_hinge,left_wheel_hinge,157.231215633,143.277608142
289690000000,5299,289690000000,,right_wheel_hinge,left_wheel_hinge,157.756204243,143.752598553
289741000000,5300,289741000000,,right_wheel_hinge,left_wheel_hinge,158.281198723,144.227594511
289791000000,5301,289791000000,,right_wheel_hinge,left_wheel_hinge,158.806176572,144.702590314
289840000000,5302,289840000000,,right_wheel_hinge,left_wheel_hinge,159.331182997,145.177578569
289891000000,5303,289891000000,,right_wheel_hinge,left_wheel_hinge,159.856178992,145.65257369
289940000000,5304,289940000000,,right_wheel_hinge,left_wheel_hinge,160.381204231,146.127574516
289991000000,5305,289991000000,,right_wheel_hinge,left_wheel_hinge,160.906204158,146.602568322
290040000000,5306,290040000000,,right_wheel_hinge,left_wheel_hinge,161.431199353,147.077564629
290090000000,5307,290090000000,,right_wheel_hinge,left_wheel_hinge,161.956194402,147.552560961
290141000000,5308,290141000000,,right_wheel_hinge,left_wheel_hinge,162.481189304,148.027557146
290190000000,5309,290190000000,,right_wheel_hinge,left_wheel_hinge,163.006185163,148.502561901
290240000000,5310,290240000000,,right_wheel_hinge,left_wheel_hinge,163.531147312,148.977584015
290290000000,5311,290290000000,,right_wheel_hinge,left_wheel_hinge,164.056141791,149.452579563
290340000000,5312,290340000000,,right_wheel_hinge,left_wheel_hinge,164.581136197,149.927575063
290390000000,5313,290390000000,,right_wheel_hinge,left_wheel_hinge,165.106117188,150.402570514
290440000000,5314,290440000000,,right_wheel_hinge,left_wheel_hinge,165.631107738,150.877559739
290490000000,5315,290490000000,,right_wheel_hinge,left_wheel_hinge,166.156104746,151.352551932
290540000000,5316,290540000000,,right_wheel_hinge,left_wheel_hinge,166.681130295,151.827547829
290590000000,5317,290590000000,,right_wheel_hinge,left_wheel_hinge,167.206119179,152.302537394
290641000000,5318,290641000000,,right_wheel_hinge,left_wheel_hinge,167.731115681,152.777533106
290690000000,5319,290690000000,,right_wheel_hinge,left_wheel_hinge,168.256110682,153.252529474
290740000000,5320,290740000000,,right_wheel_hinge,left_wheel_hinge,168.78110538,153.727525408
290791000000,5321,290791000000,,right_wheel_hinge,left_wheel_hinge,169.306099986,154.202521261
290840000000,5322,290840000000,,right_wheel_hinge,left_wheel_hinge,169.831088125,154.677551745
290890000000,5323,290890000000,,right_wheel_hinge,left_wheel_hinge,170.356079299,155.152557946
290941000000,5324,290941000000,,right_wheel_hinge,left_wheel_hinge,170.881081653,155.627559183
290990000000,5325,290990000000,,right_wheel_hinge,left_wheel_hinge,171.406054601,156.102561733
291041000000,5326,291041000000,,right_wheel_hinge,left_wheel_hinge,171.931067772,156.577553257
291091000000,5327,291091000000,,right_wheel_hinge,left_wheel_hinge,172.456066822,157.052547535
291140000000,5328,291140000000,,right_wheel_hinge,left_wheel_hinge,172.981073917,157.527542203
291190000000,5329,291190000000,,right_wheel_hinge,left_wheel_hinge,173.50606669,158.002535648
291241000000,5330,291241000000,,right_wheel_hinge,left_wheel_hinge,174.031064059,158.477531107
291290000000,5331,291290000000,,right_wheel_hinge,left_wheel_hinge,174.556059016,158.952527373
291341000000,5332,291341000000,,right_wheel_hinge,left_wheel_hinge,175.081054087,159.427523736
291391000000,5333,291391000000,,right_wheel_hinge,left_wheel_hinge,175.60604873,159.902519593
291440000000,5334,291440000000,,right_wheel_hinge,left_wheel_hinge,176.131044478,160.377516513
291489000000,5335,291489000000,,right_wheel_hinge,left_wheel_hinge,176.656031841,160.852527725
291541000000,5336,291541000000,,right_wheel_hinge,left_wheel_hinge,177.181018519,161.327538956
291590000000,5337,291590000000,,right_wheel_hinge,left_wheel_hinge,177.706000478,161.802532785
291640000000,5338,291640000000,,right_wheel_hinge,left_wheel_hinge,178.231002097,162.277527747
291691000000,5339,291691000000,,right_wheel_hinge,left_wheel_hinge,178.755998325,162.752522198
291740000000,5340,291740000000,,right_wheel_hinge,left_wheel_hinge,179.281015257,163.227517162
291790000000,5341,291790000000,,right_wheel_hinge,left_wheel_hinge,179.806008306,163.702508077
291840000000,5342,291840000000,,right_wheel_hinge,left_wheel_hinge,180.330979513,164.177521341
291890000000,5343,291890000000,,right_wheel_hinge,left_wheel_hinge,180.85598638,164.652455312
291940000000,5344,291940000000,,right_wheel_hinge,left_wheel_hinge,181.380981374,165.127451763
291991000000,5345,291991000000,,right_wheel_hinge,left_wheel_hinge,181.905976512,165.602448197
292041000000,5346,292041000000,,right_wheel_hinge,left_wheel_hinge,182.430971514,166.077444468
292090000000,5347,292090000000,,right_wheel_hinge,left_wheel_hinge,182.955966592,166.552441004
292141000000,5348,292141000000,,right_wheel_hinge,left_wheel_hinge,183.480961504,167.027437007
292191000000,5349,292191000000,,right_wheel_hinge,left_wheel_hinge,184.005947156,167.502431987
292240000000,5350,292240000000,,right_wheel_hinge,left_wheel_hinge,184.530946573,167.977426937
292290000000,5351,292290000000,,right_wheel_hinge,left_wheel_hinge,185.055941003,168.45242158
292341000000,5352,292341000000,,right_wheel_hinge,left_wheel_hinge,185.580942928,168.927414582
292390000000,5353,292390000000,,right_wheel_hinge,left_wheel_hinge,186.105949441,169.402418799
292441000000,5354,292441000000,,right_wheel_hinge,left_wheel_hinge,186.630930839,169.877434076
292490000000,5355,292490000000,,right_wheel_hinge,left_wheel_hinge,187.15591295,170.352452973
292541000000,5356,292541000000,,right_wheel_hinge,left_wheel_hinge,187.680921487,170.827375037
292590000000,5357,292590000000,,right_wheel_hinge,left_wheel_hinge,188.20591651,171.302371861
292639000000,5358,292639000000,,right_wheel_hinge,left_wheel_hinge,188.730911713,171.777368326
292689000000,5359,292689000000,,right_wheel_hinge,left_wheel_hinge,189.255906801,172.252364644
292741000000,5360,292741000000,,right_wheel_hinge,left_wheel_hinge,189.780891813,172.727352546
292790000000,5361,292790000000,,right_wheel_hinge,left_wheel_hinge,190.305885387,173.202347694
292840000000,5362,292840000000,,right_wheel_hinge,left_wheel_hinge,190.830879296,173.677342736
292890000000,5363,292890000000,,right_wheel_hinge,left_wheel_hinge,191.355880636,174.152341423
292940000000,5364,292940000000,,right_wheel_hinge,left_wheel_hinge,191.880878559,174.627337425
292991000000,5365,292991000000,,right_wheel_hinge,left_wheel_hinge,192.405869208,175.102330167
293040000000,5366,293040000000,,right_wheel_hinge,left_wheel_hinge,192.930855395,175.577337021
293090000000,5367,293090000000,,right_wheel_hinge,left_wheel_hinge,193.455823143,176.052348862
293141000000,5368,293141000000,,right_wheel_hinge,left_wheel_hinge,193.980817745,176.527345301
293190000000,5369,293190000000,,right_wheel_hinge,left_wheel_hinge,194.505819679,177.002318724
293240000000,5370,293240000000,,right_wheel_hinge,left_wheel_hinge,195.0308149,177.477314385
293290000000,5371,293290000000,,right_wheel_hinge,left_wheel_hinge,195.555811277,177.952311884
293340000000,5372,293340000000,,right_wheel_hinge,left_wheel_hinge,196.080806767,178.427308501
293391000000,5373,293391000000,,right_wheel_hinge,left_wheel_hinge,196.605782258,178.902297515
293440000000,5374,293440000000,,right_wheel_hinge,left_wheel_hinge,197.130790951,179.377296251
293491000000,5375,293491000000,,right_wheel_hinge,left_wheel_hinge,197.655787116,179.852290496
293540000000,5376,293540000000,,right_wheel_hinge,left_wheel_hinge,198.180779435,180.327282595
293590000000,5377,293590000000,,right_wheel_hinge,left_wheel_hinge,198.705774117,180.802278312
293640000000,5378,293640000000,,right_wheel_hinge,left_wheel_hinge,199.230758669,181.277276671
293691000000,5379,293691000000,,right_wheel_hinge,left_wheel_hinge,199.755736497,181.752291592
293740000000,5380,293740000000,,right_wheel_hinge,left_wheel_hinge,200.28073216,182.22728905
293790000000,5381,293790000000,,right_wheel_hinge,left_wheel_hinge,200.805726749,182.702284874
293840000000,5382,293840000000,,right_wheel_hinge,left_wheel_hinge,201.330723116,183.177281157
293890000000,5383,293890000000,,right_wheel_hinge,left_wheel_hinge,201.855721076,183.652252085
293940000000,5384,293940000000,,right_wheel_hinge,left_wheel_hinge,202.380718322,184.127245134
293990000000,5385,293990000000,,right_wheel_hinge,left_wheel_hinge,202.905703192,184.602240634
294041000000,5386,294041000000,,right_wheel_hinge,left_wheel_hinge,203.430707142,185.077235904
294090000000,5387,294090000000,,right_wheel_hinge,left_wheel_hinge,203.955702488,185.552231452
294140000000,5388,294140000000,,right_wheel_hinge,left_wheel_hinge,204.480684869,186.02722471
294189000000,5389,294189000000,,right_wheel_hinge,left_wheel_hinge,205.005682243,186.502220585
294241000000,5390,294241000000,,right_wheel_hinge,left_wheel_hinge,205.530623841,186.977262749
294291000000,5391,294291000000,,right_wheel_hinge,left_wheel_hinge,206.055613426,187.452261216
294341000000,5392,294341000000,,right_wheel_hinge,left_wheel_hinge,206.580607173,187.92725712
294388000000,5393,294388000000,,right_wheel_hinge,left_wheel_hinge,207.105602628,188.402253986
294440000000,5394,294440000000,,right_wheel_hinge,left_wheel_hinge,207.630597272,188.877249821
294491000000,5395,294491000000,,right_wheel_hinge,left_wheel_hinge,208.155591839,189.352245438
294541000000,5396,294541000000,,right_wheel_hinge,left_wheel_hinge,208.680586842,189.827241617
294591000000,5397,294591000000,,right_wheel_hinge,left_wheel_hinge,209.205576346,190.302235272
294641000000,5398,294641000000,,right_wheel_hinge,left_wheel_hinge,209.730572363,190.777228888
294690000000,5399,294690000000,,right_wheel_hinge,left_wheel_hinge,210.255569327,191.252223738
294740000000,5400,294740000000,,right_wheel_hinge,left_wheel_hinge,210.780592304,191.727210072
294790000000,5401,294790000000,,right_wheel_hinge,left_wheel_hinge,211.305603134,192.202211153
294840000000,5402,294840000000,,right_wheel_hinge,left_wheel_hinge,211.83059397,192.677215489
294891000000,5403,294891000000,,right_wheel_hinge,left_wheel_hinge,212.355583916,193.152212556
294938000000,5404,294938000000,,right_wheel_hinge,left_wheel_hinge,212.88057926,193.627209331
294991000000,5405,294991000000,,right_wheel_hinge,left_wheel_hinge,213.405575219,194.102206884
295041000000,5406,295041000000,,right_wheel_hinge,left_wheel_hinge,213.930574683,194.57720763
295090000000,5407,295090000000,,right_wheel_hinge,left_wheel_hinge,214.455573339,195.052206298
295140000000,5408,295140000000,,right_wheel_hinge,left_wheel_hinge,214.980548672,195.52720012
295191000000,5409,295191000000,,right_wheel_hinge,left_wheel_hinge,215.505540657,196.002181381
295241000000,5410,295241000000,,right_wheel_hinge,left_wheel_hinge,216.030548394,196.477173907
295291000000,5411,295291000000,,right_wheel_hinge,left_wheel_hinge,216.555537718,196.95216607
295340000000,5412,295340000000,,right_wheel_hinge,left_wheel_hinge,217.08055547,197.427160856
295391000000,5413,295391000000,,right_wheel_hinge,left_wheel_hinge,217.605552039,197.902157515
295441000000,5414,295441000000,,right_wheel_hinge,left_wheel_hinge,218.130544633,198.377154132
295490000000,5415,295490000000,,right_wheel_hinge,left_wheel_hinge,218.655498044,198.852192284
295540000000,5416,295540000000,,right_wheel_hinge,left_wheel_hinge,219.180492512,199.327188955
295590000000,5417,295590000000,,right_wheel_hinge,left_wheel_hinge,219.705487457,199.802185117
295640000000,5418,295640000000,,right_wheel_hinge,left_wheel_hinge,220.230480387,200.277180945
295691000000,5419,295691000000,,right_wheel_hinge,left_wheel_hinge,220.755475572,200.752176822
295740000000,5420,295740000000,,right_wheel_hinge,left_wheel_hinge,221.280470723,201.227173111
295791000000,5421,295791000000,,right_wheel_hinge,left_wheel_hinge,221.805439215,201.702169659
295840000000,5422,295840000000,,right_wheel_hinge,left_wheel_hinge,222.330446525,202.177160711
295890000000,5423,295890000000,,right_wheel_hinge,left_wheel_hinge,222.855460797,202.652155174
295941000000,5424,295941000000,,right_wheel_hinge,left_wheel_hinge,223.380463105,203.127142039
295991000000,5425,295991000000,,right_wheel_hinge,left_wheel_hinge,223.905460341,203.602135642
296040000000,5426,296040000000,,right_wheel_hinge,left_wheel_hinge,224.4304554,204.077131891
296090000000,5427,296090000000,,right_wheel_hinge,left_wheel_hinge,224.955450514,204.55212835
296140000000,5428,296140000000,,right_wheel_hinge,left_wheel_hinge,225.480435327,205.027161769
296191000000,5429,296191000000,,right_wheel_hinge,left_wheel_hinge,226.005425058,205.502188953
296240000000,5430,296240000000,,right_wheel_hinge,left_wheel_hinge,226.530419329,205.977184295
296291000000,5431,296291000000,,right_wheel_hinge,left_wheel_hinge,227.055411681,206.45217867
296340000000,5432,296340000000,,right_wheel_hinge,left_wheel_hinge,227.580406364,206.927174477
296390000000,5433,296390000000,,right_wheel_hinge,left_wheel_hinge,228.105384958,207.402171075
296440000000,5434,296440000000,,right_wheel_hinge,left_wheel_hinge,228.63039857,207.877165309
296491000000,5435,296491000000,,right_wheel_hinge,left_wheel_hinge,229.155409033,208.352154405
296541000000,5436,296541000000,,right_wheel_hinge,left_wheel_hinge,229.680417296,208.827153602
296591000000,5437,296591000000,,right_wheel_hinge,left_wheel_hinge,230.20541475,209.302142943
296640000000,5438,296640000000,,right_wheel_hinge,left_wheel_hinge,230.730409429,209.777138917
296690000000,5439,296690000000,,right_wheel_hinge,left_wheel_hinge,231.255404437,210.252135205
296740000000,5440,296740000000,,right_wheel_hinge,left_wheel_hinge,231.780399139,210.727131167
296790000000,5441,296790000000,,right_wheel_hinge,left_wheel_hinge,232.305386385,211.202157595
296841000000,5442,296841000000,,right_wheel_hinge,left_wheel_hinge,232.830360244,211.677170214
296888000000,5443,296888000000,,right_wheel_hinge,left_wheel_hinge,233.355360134,212.152170648
296941000000,5444,296941000000,,right_wheel_hinge,left_wheel_hinge,233.880355284,212.627166937
296990000000,5445,296990000000,,right_wheel_hinge,left_wheel_hinge,234.405326779,213.102161571
297040000000,5446,297040000000,,right_wheel_hinge,left_wheel_hinge,234.930324929,213.577154667
297090000000,5447,297090000000,,right_wheel_hinge,left_wheel_hinge,235.455335741,214.05214877
297140000000,5448,297140000000,,right_wheel_hinge,left_wheel_hinge,235.98034176,214.527138354
297190000000,5449,297190000000,,right_wheel_hinge,left_wheel_hinge,236.505342717,215.002136157
297241000000,5450,297241000000,,right_wheel_hinge,left_wheel_hinge,237.030338568,215.477132852
297290000000,5451,297290000000,,right_wheel_hinge,left_wheel_hinge,237.55533368,215.952129187
297340000000,5452,297340000000,,right_wheel_hinge,left_wheel_hinge,238.080328285,216.427125103
297390000000,5453,297390000000,,right_wheel_hinge,left_wheel_hinge,238.605323584,216.902121731
297441000000,5454,297441000000,,right_wheel_hinge,left_wheel_hinge,239.130319152,217.377118119
297491000000,5455,297491000000,,right_wheel_hinge,left_wheel_hinge,239.655301743,217.852139513
297540000000,5456,297540000000,,right_wheel_hinge,left_wheel_hinge,240.180295098,218.327133958
297588000000,5457,297588000000,,right_wheel_hinge,left_wheel_hinge,240.705286312,218.802128914
297640000000,5458,297640000000,,right_wheel_hinge,left_wheel_hinge,241.230282035,219.277124246
297691000000,5459,297691000000,,right_wheel_hinge,left_wheel_hinge,241.755280095,219.75211826
297741000000,5460,297741000000,,right_wheel_hinge,left_wheel_hinge,242.280288485,220.227115746
297791000000,5461,297791000000,,right_wheel_hinge,left_wheel_hinge,242.805283948,220.702112414
297840000000,5462,297840000000,,right_wheel_hinge,left_wheel_hinge,243.330275511,221.177116444
297891000000,5463,297891000000,,right_wheel_hinge,left_wheel_hinge,243.855270212,221.652112183
297941000000,5464,297941000000,,right_wheel_hinge,left_wheel_hinge,244.380265222,222.127108547
297990000000,5465,297990000000,,right_wheel_hinge,left_wheel_hinge,244.905259965,222.602104455
298040000000,5466,298040000000,,right_wheel_hinge,left_wheel_hinge,245.4302559,223.077101558
298090000000,5467,298090000000,,right_wheel_hinge,left_wheel_hinge,245.955252692,223.552098235
298140000000,5468,298140000000,,right_wheel_hinge,left_wheel_hinge,246.480247883,224.027094529
298190000000,5469,298190000000,,right_wheel_hinge,left_wheel_hinge,247.005231894,224.502086107
298241000000,5470,298241000000,,right_wheel_hinge,left_wheel_hinge,247.530227025,224.977079622
298290000000,5471,298290000000,,right_wheel_hinge,left_wheel_hinge,248.055235285,225.452074517
298340000000,5472,298340000000,,right_wheel_hinge,left_wheel_hinge,248.580239434,225.927070127
298390000000,5473,298390000000,,right_wheel_hinge,left_wheel_hinge,249.105234618,226.402066462
298440000000,5474,298440000000,,right_wheel_hinge,left_wheel_hinge,249.630202452,226.877082311
298490000000,5475,298490000000,,right_wheel_hinge,left_wheel_hinge,250.155200689,227.352058784
298540000000,5476,298540000000,,right_wheel_hinge,left_wheel_hinge,250.680197447,227.827056749
298590000000,5477,298590000000,,right_wheel_hinge,left_wheel_hinge,251.205192343,228.302052897
298640000000,5478,298640000000,,right_wheel_hinge,left_wheel_hinge,251.730188729,228.777050462
298691000000,5479,298691000000,,right_wheel_hinge,left_wheel_hinge,252.255188167,229.252052399
298741000000,5480,298741000000,,right_wheel_hinge,left_wheel_hinge,252.7801773,229.727043837
298791000000,5481,298791000000,,right_wheel_hinge,left_wheel_hinge,253.305163296,230.202039335
298841000000,5482,298841000000,,right_wheel_hinge,left_wheel_hinge,253.830158481,230.677033016
298891000000,5483,298891000000,,right_wheel_hinge,left_wheel_hinge,254.355152757,231.152027003
298940000000,5484,298940000000,,right_wheel_hinge,left_wheel_hinge,254.880165148,231.62702035
298990000000,5485,298990000000,,right_wheel_hinge,left_wheel_hinge,255.405160516,232.102016907
299041000000,5486,299041000000,,right_wheel_hinge,left_wheel_hinge,255.930144158,232.577016276
299090000000,5487,299090000000,,right_wheel_hinge,left_wheel_hinge,256.455122661,233.052031708
299140000000,5488,299140000000,,right_wheel_hinge,left_wheel_hinge,256.980122424,233.526988409
299190000000,5489,299190000000,,right_wheel_hinge,left_wheel_hinge,257.505119998,234.001979628
299240000000,5490,299240000000,,right_wheel_hinge,left_wheel_hinge,258.030114731,234.476975794
299291000000,5491,299291000000,,right_wheel_hinge,left_wheel_hinge,258.555111206,234.951973509
299340000000,5492,299340000000,,right_wheel_hinge,left_wheel_hinge,259.080095681,235.426970777
299390000000,5493,299390000000,,right_wheel_hinge,left_wheel_hinge,259.60512504,235.901966949
299441000000,5494,299441000000,,right_wheel_hinge,left_wheel_hinge,260.130122465,236.376961906
299490000000,5495,299490000000,,right_wheel_hinge,left_wheel_hinge,260.655117605,236.851958076
299540000000,5496,299540000000,,right_wheel_hinge,left_wheel_hinge,261.180119431,237.326952172
299590000000,5497,299590000000,,right_wheel_hinge,left_wheel_hinge,261.70511162,237.801946528
299640000000,5498,299640000000,,right_wheel_hinge,left_wheel_hinge,262.230091617,238.276963274
299687000000,5499,299687000000,,right_wheel_hinge,left_wheel_hinge,262.755054881,238.752004334
299740000000,5500,299740000000,,right_wheel_hinge,left_wheel_hinge,263.280048818,239.227001085
299790000000,5501,299790000000,,right_wheel_hinge,left_wheel_hinge,263.80504403,239.701996812
299838000000,5502,299838000000,,right_wheel_hinge,left_wheel_hinge,264.330049916,240.176952305
299891000000,5503,299891000000,,right_wheel_hinge,left_wheel_hinge,264.8550451,240.651948881
299941000000,5504,299941000000,,right_wheel_hinge,left_wheel_hinge,265.380031078,241.126945109
299990000000,5505,299990000000,,right_wheel_hinge,left_wheel_hinge,265.905034616,241.601943485
300041000000,5506,300041000000,,right_wheel_hinge,left_wheel_hinge,266.430030343,242.076938082
300091000000,5507,300091000000,,right_wheel_hinge,left_wheel_hinge,266.955031422,242.551933323
300140000000,5508,300140000000,,right_wheel_hinge,left_wheel_hinge,267.480040767,243.026934591
300189000000,5509,300189000000,,right_wheel_hinge,left_wheel_hinge,268.005015941,243.501957657
300240000000,5510,300240000000,,right_wheel_hinge,left_wheel_hinge,268.529997116,243.97696926
300290000000,5511,300290000000,,right_wheel_hinge,left_wheel_hinge,269.054988241,244.45197548
300340000000,5512,300340000000,,right_wheel_hinge,left_wheel_hinge,269.579983118,244.926971743
300390000000,5513,300390000000,,right_wheel_hinge,left_wheel_hinge,270.104978186,245.401968089
300441000000,5514,300441000000,,right_wheel_hinge,left_wheel_hinge,270.62997377,245.876965152
300490000000,5515,300490000000,,right_wheel_hinge,left_wheel_hinge,271.15498699,246.351925335
300540000000,5516,300540000000,,right_wheel_hinge,left_wheel_hinge,271.679970713,246.826920078
300590000000,5517,300590000000,,right_wheel_hinge,left_wheel_hinge,272.20496028,247.301915156
300640000000,5518,300640000000,,right_wheel_hinge,left_wheel_hinge,272.729954083,247.776910023
300690000000,5519,300690000000,,right_wheel_hinge,left_wheel_hinge,273.254954503,248.251906234
300740000000,5520,300740000000,,right_wheel_hinge,left_wheel_hinge,273.779956314,248.726900297
300790000000,5521,300790000000,,right_wheel_hinge,left_wheel_hinge,274.304951491,249.201896623
300841000000,5522,300841000000,,right_wheel_hinge,left_wheel_hinge,274.829931601,249.676935854
300890000000,5523,300890000000,,right_wheel_hinge,left_wheel_hinge,275.354925312,250.151933498
300939000000,5524,300939000000,,right_wheel_hinge,left_wheel_hinge,275.879920688,250.626929537
300990000000,5525,300990000000,,right_wheel_hinge,left_wheel_hinge,276.404928428,251.101936969
301039000000,5526,301039000000,,right_wheel_hinge,left_wheel_hinge,276.929925269,251.576934953
301087000000,5527,301087000000,,right_wheel_hinge,left_wheel_hinge,277.454920541,252.051931426
301137000000,5528,301137000000,,right_wheel_hinge,left_wheel_hinge,277.979915678,252.526927679
301190000000,5529,301190000000,,right_wheel_hinge,left_wheel_hinge,278.504902157,253.00191107
301240000000,5530,301240000000,,right_wheel_hinge,left_wheel_hinge,279.029900286,253.476903608
301290000000,5531,301290000000,,right_wheel_hinge,left_wheel_hinge,279.554900869,253.951898141
301337000000,5532,301337000000,,right_wheel_hinge,left_wheel_hinge,280.079909481,254.426889818
301391000000,5533,301391000000,,right_wheel_hinge,left_wheel_hinge,280.604909,254.901885247
301440000000,5534,301440000000,,right_wheel_hinge,left_wheel_hinge,281.129874884,255.376902881
301491000000,5535,301491000000,,right_wheel_hinge,left_wheel_hinge,281.654869495,255.851899537
301540000000,5536,301540000000,,right_wheel_hinge,left_wheel_hinge,282.179865376,256.32689671
301590000000,5537,301590000000,,right_wheel_hinge,left_wheel_hinge,282.704863433,256.801896157
301640000000,5538,301640000000,,right_wheel_hinge,left_wheel_hinge,283.229862332,257.276895332
301690000000,5539,301690000000,,right_wheel_hinge,left_wheel_hinge,283.754857277,257.751891485
301741000000,5540,301741000000,,right_wheel_hinge,left_wheel_hinge,284.279852432,258.226887723
301789000000,5541,301789000000,,right_wheel_hinge,left_wheel_hinge,284.804854404,258.701877336
301840000000,5542,301840000000,,right_wheel_hinge,left_wheel_hinge,285.329858089,259.176871003
301890000000,5543,301890000000,,right_wheel_hinge,left_wheel_hinge,285.854867533,259.651864686
301941000000,5544,301941000000,,right_wheel_hinge,left_wheel_hinge,286.379870122,260.126846675
301990000000,5545,301990000000,,right_wheel_hinge,left_wheel_hinge,286.904868005,260.601845755
302041000000,5546,302041000000,,right_wheel_hinge,left_wheel_hinge,287.429862778,261.076841716
302091000000,5547,302091000000,,right_wheel_hinge,left_wheel_hinge,287.954841408,261.55185934
302141000000,5548,302141000000,,right_wheel_hinge,left_wheel_hinge,288.479813641,262.026867546
302190000000,5549,302190000000,,right_wheel_hinge,left_wheel_hinge,289.004808361,262.501863562
302240000000,5550,302240000000,,right_wheel_hinge,left_wheel_hinge,289.529799676,262.976856648
302289000000,5551,302289000000,,right_wheel_hinge,left_wheel_hinge,290.054794507,263.451852624
302341000000,5552,302341000000,,right_wheel_hinge,left_wheel_hinge,290.579789694,263.926848854
302389000000,5553,302389000000,,right_wheel_hinge,left_wheel_hinge,291.104786255,264.40183831
302440000000,5554,302440000000,,right_wheel_hinge,left_wheel_hinge,291.629788866,264.876833875
302491000000,5555,302491000000,,right_wheel_hinge,left_wheel_hinge,292.154801277,265.351827216
302539000000,5556,302539000000,,right_wheel_hinge,left_wheel_hinge,292.679809307,265.826818288
302591000000,5557,302591000000,,right_wheel_hinge,left_wheel_hinge,293.204805643,266.3018144
302637000000,5558,302637000000,,right_wheel_hinge,left_wheel_hinge,293.729800699,266.776810777
