%time,field.x,field.y,field.theta
1620032196925352096,0.00411040504416,-0.000575499172743,0.014384992844
1620032196975397109,0.00413269700422,-0.000984340605713,0.0146710979107
1620032197023159980,0.00327707166453,-0.00100770933532,0.0146375558272
1620032197070103883,0.00282356128627,-0.00200889607165,0.0143555560387
1620032197071196079,0.00339573701951,-0.00150184148816,0.0144929499272
1620032197113318920,0.00421149902808,-0.000595653172147,0.0145496334907
1620032197157322883,0.00291052049453,-0.00169626688979,0.0144344224147
1620032197199232101,0.00417230243928,-0.00101048385511,0.0143651206677
1620032197242508888,0.00390468915348,-0.00210595896861,0.0146650383202
1620032197242609977,0.00337086383118,-0.00195233983929,0.0145495396524
1620032197284394025,0.00338164061066,-0.000532875524264,0.0146384796174
1620032197303245067,0.004905142916,-0.00140189950267,0.014600625782
1620032197348237991,0.00369472812868,-0.000902902915147,0.0147490865095
1620032197391429901,0.00321120254413,-0.000274594298506,0.0145407612306
1620032197439249038,0.00555129580298,-0.00106956801324,0.0148191906232
1620032197483323097,0.00357072017957,-0.000942772044624,0.0146386661881
1620032197527254104,0.0032167346807,-0.00221298108935,0.0146497876674
1620032197567276000,0.00449138677829,-0.00114340410868,0.014594383199
1620032197606338977,0.00338817630092,-0.00114515784302,0.0148206012186
1620032197623176097,0.00322278593265,-0.000615646087832,0.014753881083
1620032197668272972,0.00410560211003,-0.00201378245823,0.0144677194499
1620032197713330984,0.00342768050425,-0.00108690024381,0.0148383948378
1620032197716470956,0.00300327550607,1.35506627376e-05,0.0145776223334
1620032197759224891,0.00341734555924,-0.000616219241404,0.0147767366351
1620032197804368972,0.00320700404717,-0.00134651524975,0.0148390736489
1620032197850599050,0.00369830895666,-0.001473546606,0.0144248232548
1620032197895327091,0.00394186512061,-0.00219447153582,0.0146286630939
1620032197896261930,0.00409907721269,-0.00127822872493,0.01460649235
1620032197936229944,0.00330264160197,-0.00097370217397,0.0148169777851
1620032197980361938,0.00322416419391,-0.000289741344137,0.0145859190115
1620032198024247884,0.0028474129806,-0.000766262435533,0.0143523656128
1620032198067293882,0.00225391084367,-0.000738475249755,0.0144542204774
1620032198067397117,0.00442449821513,-0.00133525885582,0.0147688900673
1620032198115235090,0.00259020749635,-0.000119967243242,0.0145245454682
1620032198156327962,0.00369900186304,-0.0010309489843,0.0146172722681
1620032198200261116,0.00466086746732,-0.00108819746259,0.0145735859877
1620032198242270946,0.003107175072,-0.00129583164066,0.014689353784
1620032198251282930,0.00492099486993,-0.000577833697035,0.0147765817677
1620032198296300888,0.00353480813006,-0.000974506102704,0.0147076884851
1620032198339180946,0.00196536520404,3.51753029443e-07,0.0143980391313
1620032198385267019,0.00380883294933,-0.000534108370625,0.0146577118303
1620032198431252956,0.00330363510649,-0.00199392562618,0.0145359717867
1620032198475354909,0.00466772021959,-0.00240213470139,0.0148307921753
1620032198523256063,0.00216750141537,-0.000108537661801,0.0145961640202
1620032198525279998,0.00372497050312,0.000216922840111,0.0146202129096
1620032198563364982,0.00304718796911,-0.000337489359582,0.0146444216647
1620032198564259052,0.00366846718479,-0.000276579020916,0.0146456503638
1620032198601380109,0.00236843541661,-0.000642421878565,0.0143520188196
1620032198650368928,0.00383614854619,-0.00185591110718,0.0144785693748
1620032198652352094,0.00243125370149,-0.00079198980921,0.0146992360163
1620032198691277027,0.00356737511784,-0.0013166553026,0.0144327494063
1620032198692193031,0.00549640533443,0.000513664367551,0.0146598067107
1620032198731199026,0.00381050749321,-0.00131925752009,0.0145938469056
1620032198782238960,0.00374412553318,-0.00103460190627,0.0147807584713
1620032198823414087,0.00420758935542,-0.00219561283252,0.0147402403126
1620032198826364040,0.00500166022094,-0.00208092376524,0.0146462107937
1620032198872190952,0.00413708301904,-0.000557064725239,0.0146394127941
1620032198919554948,0.00339215896621,-0.000691184440395,0.0147745824352
1620032198919689893,0.00296185087714,-0.00169846515889,0.0145508705673
1620032198962340116,0.00408066091155,-0.000166900796734,0.0147504709411
1620032199005227088,0.00377306476071,-0.000939578050118,0.0146374743829
1620032199051268100,0.00310733040519,-0.00160926766385,0.0146750067165
1620032199096424102,0.00292027099744,-0.00143428847354,0.014855498172
1620032199096545934,0.00325684564979,-0.00135625673039,0.0145786315112
1620032199138308048,0.00563571841825,-0.00141601860442,0.0146536270854
1620032199182300090,0.00477926008319,-0.00211133421669,0.0147137688392
1620032199225491046,0.00454824700255,-0.00108479988419,0.0145751729205
1620032199274231910,0.00629966983569,-0.0013492344711,0.0149753181773
1620032199317265033,0.00801348119855,-0.00170359573191,0.0150831811756
1620032199361157894,0.0126395045738,-0.00144885225943,0.0149491754641
1620032199401604890,0.0153440193216,-0.000651263472585,0.0152962456476
1620032199452251911,0.0203130843316,-0.000668383725559,0.0155359830702
1620032199454260110,0.0239890612112,-0.00204787775618,0.0160310003796
1620032199497450113,0.0278830320952,-0.000931211554285,0.0161356451433
1620032199542578935,0.0352582793282,-0.000552226907623,0.0163510776406
1620032199586368083,0.0444890450664,0.000311384980243,0.0169015413196
1620032199626312971,0.0540630152035,-0.000479364866265,0.0171845407117
1620032199671256065,0.0589231333531,-0.000761964634449,0.0176415194329
1620032199674333095,0.0644085197974,-0.00034726242663,0.0179994618069
1620032199719326019,0.0717078461838,0.000252674272258,0.0184825554302
1620032199763253927,0.0844161893228,0.000236500497647,0.0189266078198
1620032199808371067,0.0995036940659,0.000673582349327,0.0194330747489
1620032199851519107,0.107257183137,0.00155526358546,0.0201397542195
1620032199852384090,0.113424467352,0.000567887573937,0.020086638829
1620032199891417026,0.124060498224,0.000592447208831,0.0204475892164
1620032199939313888,0.140779301313,0.00236628859759,0.0214494753382
1620032199980307102,0.149974569133,0.00345771632338,0.0214804885928
1620032199980406045,0.158391150505,0.00246810572894,0.021571978446
1620032200023371934,0.168216079637,0.00255611301254,0.022007353951
1620032200026357889,0.178507000954,0.00269951058884,0.0221241209043
1620032200073308944,0.188057490749,0.00275279207369,0.0226154019437
1620032200115367889,0.209972788249,0.00349499609195,0.0231771176947
1620032200161401033,0.231714445215,0.00495108351301,0.0233747053261
1620032200205313920,0.256894035392,0.00447078181983,0.024070226506
1620032200248322010,0.28159605241,0.00476933090443,0.0244185223116
1620032200292464971,0.293547475976,0.00441465168854,0.0243539335753
1620032200308284997,0.308481234354,0.0052533123401,0.0245890751104
1620032200350266933,0.321483943081,0.00692316449895,0.0243650724701
1620032200391284942,0.351186585474,0.00695714899604,0.0240109498587
1620032200438401937,0.377314747398,0.00856458546289,0.0248881745965
1620032200471314907,0.393112736785,0.00894482550294,0.0245682329465
1620032200483257055,0.408074652456,0.00830283761827,0.0246053838972
1620032200521384954,0.42401134626,0.00898439124031,0.0246376262672
1620032200564337015,0.456059259487,0.0105765296699,0.0248015695071
1620032200609405040,0.489905716631,0.0111571192649,0.0252997665804
1620032200650305032,0.505844422914,0.0110606361862,0.0252665762493
1620032200657341003,0.523305283033,0.0128193263293,0.0256261539513
1620032200698312044,0.541049773704,0.0136339541402,0.0257753461315
1620032200699378013,0.557967350771,0.0133180796783,0.0257169222947
1620032200740372896,0.576536202094,0.012972019164,0.0259728462657
1620032200784320116,0.613416275397,0.0148731801241,0.0266429132111
1620032200829320907,0.653194442521,0.0156666031853,0.0271451108404
1620032200872419118,0.674459539617,0.0161884664749,0.0270571607431
1620032200872528076,0.692495997874,0.0165845780796,0.0278053435916
1620032200916531085,0.712585639714,0.0179530055527,0.0277171344349
1620032200961354017,0.75406842129,0.0193325974929,0.0284351028539
1620032201002306938,0.796147894842,0.0201141105154,0.0287091396815
1620032201048316955,0.817446700506,0.0204677293978,0.0292831837447
1620032201052234888,0.841083967767,0.0220231754711,0.0293082252611
1620032201093449115,0.861973696561,0.0221143772205,0.0298016641687
1620032201132252931,0.908032510474,0.023999308361,0.0302059996185
1620032201179411888,0.953338658066,0.0246976268975,0.0303514587744
1620032201224227905,0.977462756364,0.0260047627267,0.0307424253726
1620032201227128028,1.00098381186,0.0262148415964,0.0307990378776
1620032201267306089,1.02670780231,0.0271737674161,0.0318225907389
1620032201315912008,1.04903771077,0.0279142191536,0.0330205610328
1620032201316045045,1.07303628888,0.0288452992773,0.035199711853
1620032201359225988,1.09765675121,0.0298870679908,0.038272750547
1620032201361124992,1.12251413218,0.0309742672187,0.0425671089137
1620032201405133008,1.17181593229,0.033366811673,0.053174908679
1620032201442250013,1.19361320093,0.0345391439189,0.0591391883547
1620032201445293903,1.21992756908,0.0369339545489,0.0662163955371
1620032201490329027,1.24316243169,0.0376880503178,0.0736905417576
1620032201534296989,1.29365000336,0.0433854776304,0.091236524698
1620032201583496093,1.34354500399,0.0471785333804,0.11066867904
1620032201631239891,1.39131704474,0.0540630116201,0.129155522959
1620032201676326990,1.44156124022,0.0602041445193,0.148796602872
1620032201720282077,1.46850565881,0.0642148845844,0.158209416155
1620032201762340068,1.49586441748,0.0689243958524,0.168788748695
1620032201762455940,1.52515861128,0.0732881981878,0.178712748243
1620032201806236982,1.54735390546,0.0790956868962,0.187301037059
1620032201808203935,1.57305051916,0.0836512193969,0.195993374675
1620032201853745937,1.59850880423,0.0883671456267,0.204465931673
1620032201896311044,1.64574619852,0.0992652911791,0.220686560016
1620032201941263914,1.6938315091,0.108490662292,0.238172592012
1620032201982605934,1.71748153873,0.117075662878,0.247681123302
1620032201982727050,1.74295250758,0.121464280535,0.257216182743
1620032202024346113,1.76629802465,0.126853628409,0.267424567812
1620032202067364931,1.81460647963,0.141236860036,0.286372530097
1620032202111308097,1.86031459246,0.15580135773,0.305017337547
1620032202153503894,1.90776082448,0.171025299442,0.323897424568
1620032202195286989,1.93299779741,0.179752524689,0.335003959925
1620032202203262090,1.95598939694,0.188105032294,0.344495554621
1620032202243211984,1.97733345183,0.195713305556,0.353194054455
1620032202286545991,2.02511146659,0.212565286516,0.372334253518
1620032202330285072,2.04896791825,0.223314313295,0.382010904551
1620032202332245111,2.07429311619,0.23304030019,0.391034153586
1620032202375246047,2.1205118266,0.253515789469,0.409420004167
1620032202426413059,2.14219467146,0.262937212889,0.417400131561
1620032202435215950,2.16515782376,0.273588855652,0.425839765596
1620032202480364084,2.18658056593,0.283634846244,0.433597601911
1620032202480479955,2.21039195832,0.295399234281,0.441763622755
1620032202521359920,2.23419666076,0.306229173127,0.45009707364
1620032202527581930,2.25636564685,0.31620109436,0.457969805644
1620032202569225072,2.2775366621,0.32725068821,0.466118440896
1620032202616338014,2.32052616631,0.349771914955,0.482816501757
1620032202665385007,2.36552845694,0.372910012639,0.502548209562
1620032202706300020,2.41008292777,0.397807379324,0.522236723469
1620032202752614974,2.43003537184,0.409630163946,0.531835885509
1620032202759334087,2.45314882336,0.421603391455,0.541819652281
1620032202799386024,2.47605277788,0.435210571705,0.551481996469
1620032202842302083,2.51630324727,0.461063124574,0.570503800784
1620032202885447025,2.55913847223,0.488005583671,0.590236616308
1620032202926449060,2.57974866176,0.50145263548,0.598520954802
1620032202935368061,2.60300662462,0.517395215311,0.609234773494
1620032202979370117,2.6231911223,0.530723319379,0.617470702097
1620032203026384115,2.66227197095,0.559718778087,0.635234529846
1620032203072272062,2.6821572161,0.573130064431,0.643196687507
1620032203076221942,2.70148275726,0.58874173292,0.651658175825
1620032203115402936,2.74410337648,0.619063402268,0.667920267289
1620032203157361030,2.76350563961,0.635189521965,0.675879213112
1620032203157494068,2.7807792576,0.651448922724,0.683887077614
1620032203196413040,2.80101662155,0.665974313023,0.691337348638
1620032203244343042,2.82071113019,0.681496875581,0.699707900847
1620032203244461059,2.83919333834,0.698924455853,0.707921283121
1620032203280265092,2.87752669254,0.73205847689,0.725911342647
1620032203326323032,2.89387099951,0.749542384193,0.735222326193
1620032203331363916,2.9143428543,0.766003232718,0.745300301923
1620032203374299049,2.9342859378,0.782755696636,0.755143792628
1620032203421498060,2.96912516786,0.817231347073,0.773844110482
1620032203464340925,3.00544470672,0.851973484637,0.792742951423
1620032203509371995,3.03926413878,0.888019779097,0.811359821452
1620032203552309036,3.07502589447,0.925383231925,0.829350178652
1620032203594289064,3.09104343044,0.944358427158,0.837930301415
1620032203607419013,3.10843526436,0.962880862663,0.847032291139
1620032203653151988,3.12569265889,0.982487623285,0.855609311852
1620032203699260950,3.15705976856,1.02083151678,0.87110694635
1620032203747246980,3.18912475276,1.05898489671,0.88741390856
1620032203794413089,3.22100673031,1.09871712517,0.903426978535
1620032203809391975,3.23715844255,1.11792054799,0.911313517369
1620032203834252119,3.25148163909,1.13775124408,0.919677478087
1620032203876440048,3.26585739702,1.15755910373,0.927346389643
1620032203924280881,3.29580197514,1.19865344053,0.944055171364
1620032203967230081,3.32530014496,1.2398944886,0.962471893464
1620032204013446092,3.35172622625,1.28009422208,0.980434311621
1620032204058376073,3.38037417408,1.3216013828,0.998615409249
1620032204106334924,3.39240876707,1.34370712135,1.00752412446
1620032204106441020,3.40844359685,1.36896417755,1.01767799515
1620032204147562026,3.41932895701,1.38582201506,1.02547724991
1620032204191409111,3.44501609928,1.43187901923,1.04214707575
1620032204234289884,3.45877065886,1.45287942207,1.05032215406
1620032204238432884,3.47198634522,1.4753436913,1.05896564024
1620032204280400037,3.48422441328,1.49811775996,1.06743390956
1620032204280500888,3.49539518823,1.5185298853,1.07552614772
1620032204326342105,3.50518574645,1.54137281147,1.08351700726
1620032204366420984,3.52970007522,1.58710160931,1.09989124889
1620032204411427974,3.55187560245,1.62905670218,1.11576394511
1620032204453396081,3.5657172918,1.65809928174,1.12542867049
1620032204498384952,3.58905255535,1.7064295986,1.1427458023
1620032204542351007,3.60652725485,1.7477942634,1.1578237005
1620032204586211919,3.62535731325,1.79513356177,1.17469332731
1620032204634372949,3.6346667247,1.81783329275,1.18275201392
1620032204636147022,3.64545477932,1.84117994695,1.19092771615
1620032204678339004,3.65414305687,1.86593803787,1.19907411197
1620032204722373962,3.67371937703,1.91386013958,1.21528739271
1620032204761418104,3.6899844755,1.95924697774,1.23136049033
1620032204803318977,3.69692695575,1.98295476431,1.23892794734
1620032204812300920,3.70597074337,2.00796050774,1.24717314588
1620032204855226039,3.71323884697,2.03190141599,1.25447505764
1620032204900558948,3.72907959211,2.08027651885,1.26959397075
1620032204943311929,3.74450668789,2.12776609773,1.28634067965
1620032204990319967,3.75645572613,2.17335107472,1.30248967615
1620032205030349016,3.76365606148,2.20032781349,1.31087790117
1620032205033358097,3.77072954515,2.22536815669,1.31917922656
1620032205074379920,3.77706244396,2.24838752197,1.3266572429
1620032205121207952,3.78794007535,2.29656619811,1.34275246252
1620032205164359092,3.79951453362,2.34534951886,1.3587543357
1620032205206382036,3.80517707886,2.37092746467,1.36719294485
1620032205212304115,3.80898646952,2.39456883319,1.37494060815
1620032205253182888,3.81445270021,2.41945954423,1.38275299532
1620032205297400951,3.82358777009,2.46995173826,1.39853042582
1620032205342247962,3.83044662049,2.51961925729,1.41423373287
1620032205386284112,3.83873273468,2.57250927467,1.43021788265
1620032205430362939,3.84138454724,2.59544734238,1.43739555681
1620032205440458059,3.84539817272,2.62071838477,1.44504420682
1620032205485289096,3.84901877465,2.64560882484,1.45202862194
1620032205529377937,3.85484226173,2.6951725398,1.46760873791
1620032205573421955,3.85975699515,2.74266321016,1.48623145122
1620032205615430116,3.86413823865,2.79409198058,1.50427291071
1620032205658407926,3.86470028393,2.81824643562,1.51209959434
1620032205660490036,3.86777295849,2.84392701388,1.52047715307
1620032205705229043,3.86686774723,2.86747910858,1.52823509172
1620032205752270936,3.86894337036,2.91842918652,1.54417861044
1620032205795272111,3.86994717344,2.96812477612,1.56015923926
1620032205844345092,3.86948600528,3.02036549313,1.5767222966
1620032205893294095,3.86794816731,3.06952212042,1.59290297813
1620032205935266017,3.86741966181,3.12060278983,1.6086084823
1620032205980367898,3.86544814428,3.14581105897,1.61627327445
1620032205980473995,3.86507315104,3.1711551642,1.62412450534
1620032206022277116,3.86293618361,3.19700033472,1.63142125382
1620032206065323114,3.85952893825,3.2454000882,1.64591512435
1620032206105215072,3.85713287979,3.27368639207,1.65360197814
1620032206110287904,3.85686067901,3.29700620031,1.66170121314
1620032206154310941,3.85328994154,3.31955011987,1.67023016573
1620032206201400041,3.84858438178,3.37030534953,1.69004672301
1620032206246259927,3.84156578864,3.41883331552,1.70874072943
1620032206288536071,3.83410021117,3.46739796326,1.72587913349
1620032206332407951,3.83072323904,3.49318152372,1.73419509314
1620032206335325002,3.8272083828,3.5165077359,1.74181882147
1620032206382448911,3.82508626014,3.52572773935,1.7444929518
1620032206382572889,3.82184206094,3.5514811684,1.75284616799
1620032206424515962,3.81255673951,3.59832461339,1.76860292882
1620032206445337057,3.80661097705,3.62455692632,1.77707425365
1620032206472335100,3.80219338674,3.64940664713,1.78526097873
1620032206512347936,3.79546673614,3.67386673624,1.79275841892
1620032206559307098,3.7831828344,3.72257019868,1.80883807236
1620032206603555917,3.77701069496,3.74737241766,1.81683775576
1620032206609391927,3.76962692972,3.77445166462,1.82538374201
1620032206649424076,3.75756643645,3.82077023522,1.83950484967
1620032206691272020,3.75194342166,3.8443300743,1.84681415696
1620032206696276903,3.74325669254,3.86976118784,1.85527465828
1620032206749571084,3.72993805314,3.91500050856,1.87156522053
1620032206789309978,3.72348743142,3.93970839405,1.88057145166
1620032206793231010,3.71514761696,3.96399597533,1.89039493827
1620032206834364891,3.7077792598,3.986444651,1.89932607201
1620032206873265027,3.69987144129,4.01047217064,1.90900033692
1620032206877388954,3.69039144095,4.03386829244,1.91881707935
1620032206914318084,3.67488261879,4.08143872952,1.93783763671
1620032206959367036,3.66385287067,4.10380230325,1.9457731541
1620032206966403007,3.6559412776,4.12700306373,1.95385899227
1620032207004357099,3.64611683092,4.14957702097,1.96188293433
1620032207046514034,3.62625458987,4.19812582046,1.97853908667
1620032207091377973,3.61724084229,4.21958359675,1.98596748445
1620032207096283912,3.60696316935,4.24286946167,1.99428819308
1620032207138314962,3.59569007629,4.26628621531,2.00221284348
1620032207170170068,3.58402401447,4.29056443019,2.01036154591
1620032207170272111,3.57266757956,4.31177215004,2.01749964001
1620032207218388080,3.55108557557,4.35874918723,2.03295539212
1620032207262358903,3.54150061008,4.37846676117,2.04040467086
1620032207266407012,3.53033827393,4.40245139965,2.04745180399
1620032207311368942,3.51827252144,4.42338193686,2.05509693695
1620032207352406024,3.50590462529,4.44627781822,2.06459607759
1620032207356232881,3.49493427969,4.46837941793,2.07403371512
1620032207399362087,3.47062537011,4.51111283649,2.09313529272
1620032207441312074,3.45955138782,4.53284807833,2.10273297416
1620032207445386886,3.44621775005,4.55313036128,2.112108864
1620032207490362882,3.43216901112,4.57470709206,2.12215290725
1620032207532339096,3.41997148379,4.59545257466,2.13113458249
1620032207534358024,3.40556947184,4.61617631219,2.14043810852
1620032207575392961,3.37961659682,4.65752904215,2.15955383776
1620032207622467994,3.35154341985,4.69792512393,2.17901253596
1620032207665647029,3.33689244025,4.71870619575,2.18823790415
1620032207670159101,3.32146436244,4.74005818853,2.19724251359
1620032207715401887,3.30765162214,4.76121758381,2.20663764644
1620032207759304046,3.27506522442,4.80020272948,2.22499936098
1620032207798412084,3.24593231996,4.83968636562,2.24206660243
1620032207845412969,3.22811279914,4.85958189151,2.25086161085
1620032207848429918,3.21417168719,4.87875810872,2.25912009655
1620032207890384912,3.19603782169,4.90052767552,2.26807532165
1620032207931250095,3.16390251107,4.93730783157,2.28658885805
1620032207974631071,3.12985641519,4.97323637512,2.30603592314
1620032208018192052,3.0973523333,5.01215513935,2.32515599452
1620032208065300941,3.07976942788,5.0301120878,2.33442507796
1620032208070287942,3.06334864638,5.04742957778,2.3441447959
1620032208113394021,3.04389953608,5.06630091907,2.35423143649
1620032208153347969,3.00908349657,5.10100127456,2.37359378375
1620032208197308063,2.9728305975,5.13404018375,2.39208090669
1620032208243351936,2.93782421307,5.16822535951,2.41159806244
1620032208280390977,2.91643470037,5.18388348703,2.42067245149
1620032208301307916,2.89734666819,5.20071738369,2.42985843716
1620032208343343973,2.87976353145,5.2173182119,2.4387091462
1620032208387237071,2.83858213744,5.25079315373,2.45687458188
1620032208427234888,2.79927380479,5.28229413141,2.47363883109
1620032208474445104,2.76123506059,5.31202842289,2.4898601954
1620032208516393899,2.73997997149,5.32630793746,2.49815730571
1620032208519181966,2.72137776206,5.34246065653,2.50619368204
1620032208562437057,2.70023400858,5.35608965253,2.51545429612
1620032208609265089,2.66129426352,5.38463062285,2.53370697106
1620032208648360013,2.61836178215,5.41241157412,2.55353178293
1620032208697288036,2.59756009829,5.42554742466,2.56268389222
1620032208703085899,2.57304944922,5.44239081374,2.57438338097
1620032208744573116,2.55579448099,5.45302353069,2.58230924389
1620032208789282083,2.51372714621,5.4771611454,2.60134011587
1620032208834345102,2.46787362134,5.5051483419,2.62248261191
1620032208880352020,2.42828313423,5.52726624893,2.63935775012
1620032208927272081,2.382067295,5.55103878408,2.65784918513
1620032208973335981,2.35858472337,5.5626280896,2.66659151001
1620032208976260900,2.33727752975,5.57407762265,2.67561864554
1620032209017402887,2.31026505715,5.58763913094,2.68602812665
1620032209061412096,2.26976508029,5.6068082364,2.70044364292
1620032209105333089,2.22311976288,5.62853318508,2.71678166452
1620032209146277904,2.17841346906,5.64884921339,2.73267238665
1620032209193489074,2.15246188339,5.65949937998,2.74155437973
1620032209197331905,2.13126454124,5.66867443696,2.74941113088
1620032209237282037,2.10886770417,5.67718712987,2.75821903658
1620032209276185035,2.06245847259,5.69594111635,2.77783380434
1620032209325340986,2.03935602667,5.70393873596,2.78675100354
1620032209325459003,2.01740503425,5.71229435388,2.79650731352
1620032209364428043,1.99457005589,5.72010101719,2.80611164482
1620032209412343025,1.94483171098,5.73669033877,2.82547826314
1620032209453314065,1.92005202533,5.74415632665,2.83496039988
1620032209455384016,1.89876652134,5.75053847384,2.84459923138
1620032209500263929,1.84958766818,5.76566193186,2.86317179983
1620032209535305976,1.82065092842,5.77260949633,2.87398843359
1620032209549282073,1.8004117851,5.77888005481,2.88115318383
1620032209597358942,1.7757270111,5.78565607457,2.89072339946
1620032209630336999,1.72741262209,5.79765972351,2.90715287846
1620032209677337884,1.67856353658,5.8088402052,2.92337208748
1620032209725202083,1.62972187275,5.81865807805,2.93944562473
1620032209773211002,1.58108215638,5.8289618796,2.95546652075
1620032209818363904,1.55632806544,5.8322842703,2.96379719614
1620032209822242975,1.52949132012,5.83739153406,2.97199247391
1620032209861397027,1.50622487458,5.84217204547,2.97975797134
1620032209902354001,1.45707363352,5.84900321659,2.99852610681
1620032209949377059,1.43141182594,5.85179312833,3.00810124325
1620032209954118013,1.40830860922,5.85536641897,3.01696517753
1620032209991170883,1.38354696082,5.85889900523,3.02678555959
1620032209998406887,1.35857047828,5.8605772572,3.03651832892
1620032210044404983,1.33497594803,5.8623092016,3.04584745698
1620032210051261901,1.30993039337,5.86597121765,3.05510059947
1620032210091315031,1.28601241044,5.86848351122,3.0645195044
1620032210102246046,1.25607265446,5.87070721226,3.07465235906
1620032210142400979,1.23362352643,5.87162729455,3.08292467797
1620032210189404964,1.18315773038,5.87497904452,3.10098200246
1620032210236114978,1.13148047374,5.87628657818,3.11903340457
1620032210277239084,1.10766433726,5.87552855509,3.12693279012
1620032210280342102,1.08154319812,5.87735702251,3.1351023462
1620032210322186946,1.03275621528,5.87611707708,-3.1320531228
1620032210366306066,1.00860492795,5.87649381029,-3.12408894771
1620032210375257968,0.980809918211,5.87635481268,-3.11541473679
1620032210412270069,0.956401698509,5.87469956091,-3.10782966634
1620032210458467006,0.906025559908,5.87245157782,-3.09131779959
1620032210504249095,0.853104807021,5.86982235829,-3.07390032141
1620032210545397996,0.831400328327,5.86812008063,-3.06691949014
1620032210549346923,0.807269662392,5.86616442237,-3.05847024128
1620032210587371110,0.783024629397,5.86360811801,-3.04889889322
1620032210633310079,0.732070188166,5.85963271774,-3.03144677652
1620032210672399044,0.682761957905,5.8522432692,-3.01389209832
1620032210716361999,0.657630775535,5.8489620254,-3.00550930086
1620032210720329046,0.633931037468,5.84546314536,-2.99676791055
1620032210763286113,0.605587151129,5.8412376535,-2.98843462962
1620032210808336973,0.58180763541,5.83764905572,-2.97998938502
1620032210811218023,0.556688741973,5.83383989422,-2.97220159615
1620032210848356008,0.50699538411,5.82406648612,-2.95511852403
1620032210897629976,0.482343537483,5.81889075055,-2.94674740497
1620032210897751092,0.457815047217,5.8139658284,-2.93873132941
1620032210935412883,0.43403358319,5.80983963635,-2.93034175792
1620032210986274003,0.385427571288,5.79869012348,-2.91437691631
1620032211028399944,0.336773539029,5.78659791424,-2.89783910273
1620032211073316097,0.288126515434,5.77429800179,-2.88179512735
1620032211115267038,0.239712130562,5.76140515488,-2.86551738791
1620032211168287038,0.214652246923,5.75411015112,-2.85726707894
1620032211208286046,0.167487042784,5.73997688912,-2.84097129696
1620032211250256061,0.143284358386,5.73167567567,-2.83271687519
1620032211258183956,0.118612658921,5.72407340166,-2.8248946573
1620032211292397975,0.0940211250096,5.71535306399,-2.81659804087
1620032211343475103,0.0465447377224,5.69990809306,-2.80055469693
1620032211380336046,-0.00140944292722,5.68261594466,-2.78492488369
1620032211425184965,-0.0272526117323,5.67295845952,-2.77727975855
1620032211426143884,-0.0480374057222,5.6635590975,-2.77045276737
1620032211473593950,-0.0723002764513,5.6567465605,-2.76293806902
1620032211511188983,-0.118805749827,5.63534054087,-2.74669294323
1620032211560251951,-0.162954355288,5.61625150023,-2.72895550158
1620032211600254058,-0.209134353596,5.59575994571,-2.71227686447
1620032211642504930,-0.232551898739,5.5853183896,-2.70483722113
1620032211650181055,-0.253292497269,5.57606196454,-2.69667977201
1620032211692234992,-0.276198632569,5.56327826516,-2.68839760885
1620032211737235069,-0.301453307701,5.55188198236,-2.6801091305
1620032211737349987,-0.322119288754,5.54018605296,-2.67174165448
1620032211783710956,-0.367699622993,5.5187264645,-2.65554369884
1620032211827332019,-0.389198482029,5.50699391059,-2.64806890959
1620032211827446937,-0.413366726903,5.49389816219,-2.63895135238
1620032211871217012,-0.434260868588,5.48286972367,-2.63170450261
1620032211908216953,-0.476766560577,5.45690242711,-2.61611989369
1620032211949389934,-0.519947241987,5.43118930539,-2.60079294409
1620032211994359970,-0.543489791608,5.41823467223,-2.59292624413
1620032211994481086,-0.563596429512,5.40618325519,-2.58586814448
1620032212035413980,-0.587543116326,5.3909731563,-2.57795475365
1620032212080420970,-0.626840850006,5.36554673283,-2.56370238605
1620032212129332065,-0.647837167315,5.35076996183,-2.55507252973
1620032212130290985,-0.66702193712,5.3355727124,-2.54571365345
1620032212171310901,-0.689220551784,5.32365029564,-2.53608093173
1620032212213382005,-0.729682973673,5.29421444274,-2.51776179428
1620032212262640953,-0.76906811643,5.26437638266,-2.50169458116
1620032212304323911,-0.807339570185,5.23521776655,-2.48547426118
1620032212346373081,-0.830691328993,5.21964704211,-2.47761617332
1620032212354218959,-0.849043964276,5.20458562094,-2.46927237756
1620032212395302057,-0.869803851359,5.18779978249,-2.46162297763
1620032212400321006,-0.889698757794,5.17247392573,-2.45368371223
1620032212445234060,-0.908016175798,5.15570410597,-2.44513006855
1620032212489265918,-0.945949038681,5.1221752017,-2.42925928631
1620032212534298896,-0.985070475941,5.08891024539,-2.41370532835
1620032212580291032,-1.02162267689,5.05442756741,-2.39895369093
1620032212623389005,-1.05961259602,5.01883862539,-2.38398491266
1620032212667282104,-1.07583449147,5.00217666072,-2.37677450844
1620032212677211046,-1.09481235761,4.98561187393,-2.36943850858
1620032212718276023,-1.11341415456,4.96852913125,-2.36150710552
1620032212763318061,-1.12959788299,4.95061584978,-2.35209447633
1620032212763442039,-1.14909921837,4.9322962182,-2.34233115433
1620032212805257081,-1.18316764043,4.89621217555,-2.32346689081
1620032212848274946,-1.1994263997,4.87861352831,-2.31362911043
1620032212850214004,-1.21573487837,4.85947412101,-2.30428658504
1620032212897339105,-1.23436264656,4.84188104228,-2.29538336612
1620032212939280033,-1.26743616511,4.80399794249,-2.27918857316
1620032212983455896,-1.2988321752,4.76502981941,-2.26279765862
1620032213028309106,-1.33022735214,4.7269909947,-2.2469263908
1620032213073195934,-1.34616414803,4.70515084307,-2.23875398973
1620032213077342033,-1.36394505452,4.68632243756,-2.23060246042
1620032213121217966,-1.37857455232,4.66488494421,-2.22241029455
1620032213168313980,-1.39348946013,4.64566424376,-2.21506296849
1620032213168473005,-1.40912211913,4.62540745444,-2.20738150127
1620032213206245899,-1.43873629688,4.58443759839,-2.19243545663
1620032213249286890,-1.47042573192,4.54180491995,-2.17728908692
1620032213292356014,-1.48485098631,4.51882434981,-2.16860893316
1620032213298322916,-1.49859907111,4.49893437475,-2.16072150281
1620032213335454940,-1.51057376825,4.48018874113,-2.15207636345
1620032213383297920,-1.53748204746,4.4380903353,-2.13274435676
1620032213428345918,-1.56289914365,4.39534955421,-2.11341591935
1620032213475454092,-1.57611993383,4.37504301903,-2.10374706637
1620032213477343082,-1.58678433277,4.35336583274,-2.09353043284
1620032213520318031,-1.60140719026,4.33150846553,-2.0848178808
1620032213565303087,-1.62540201594,4.28775322294,-2.06678204094
1620032213609333992,-1.64579951835,4.24377755861,-2.05103501505
1620032213653496026,-1.66033482962,4.22140488584,-2.04276164901
1620032213656203031,-1.67260042557,4.19889010171,-2.03473942706
1620032213696264028,-1.68350059285,4.17731058371,-2.02696597197
1620032213741364955,-1.70429536894,4.13171015798,-2.01117303111
1620032213785293102,-1.71563055972,4.10664695697,-2.00331697795
1620032213791368961,-1.72860733605,4.08401400514,-1.99565453169
1620032213830452919,-1.74732353411,4.03577912488,-1.98073380022
1620032213872231960,-1.76626348668,3.99256490842,-1.96561455725
1620032213917327880,-1.77781231407,3.96966073895,-1.95697567664
1620032213920397996,-1.78594130125,3.94712604445,-1.9470730409
1620032213959378004,-1.79499630099,3.92380386877,-1.93750831614
1620032214004334926,-1.8131184697,3.8769273797,-1.91845451256
1620032214043279886,-1.82198116838,3.85396620865,-1.90912028526
1620032214050275087,-1.82989348065,3.82995265656,-1.89931864163
1620032214091358900,-1.83694917176,3.80567214207,-1.88972285933
1620032214135299921,-1.85248139513,3.75889710359,-1.87075500371
1620032214177408933,-1.86080757504,3.73542125204,-1.86138881995
1620032214179260015,-1.86743296721,3.71167114234,-1.85178628472
1620032214219269990,-1.87285780047,3.68631525492,-1.84172710617
1620032214263375043,-1.88707361404,3.63963200204,-1.82314002876
1620032214306400060,-1.89888129315,3.59105227343,-1.80466144028
1620032214347436904,-1.90996459017,3.54070999916,-1.7867128659
1620032214391350984,-1.91591251942,3.51580445292,-1.77821591536
1620032214402424097,-1.92006040977,3.49148993261,-1.76925846307
1620032214442334890,-1.92485446569,3.46156849152,-1.76003492865
1620032214485284090,-1.93513181364,3.417965773,-1.74526174602
1620032214528378009,-1.9406272891,3.36829886584,-1.72691144384
1620032214575211048,-1.94661063429,3.34375149432,-1.71716448043
1620032214577239990,-1.94857847608,3.3178196181,-1.70757190917
1620032214618406057,-1.95361948945,3.29317917301,-1.69768172143
1620032214622284889,-1.95626536355,3.26866039766,-1.68790822156
1620032214666276931,-1.95773340653,3.24495829468,-1.67884263968
1620032214704291105,-1.96194972859,3.19445356353,-1.65928170059
1620032214746402025,-1.96663211107,3.16985040087,-1.65004170989
1620032214751298904,-1.96672345555,3.1457977001,-1.64057016371
1620032214791285037,-1.96816644077,3.12130695573,-1.63107235086
1620032214838360071,-1.9716437235,3.0687375818,-1.61127330439
1620032214879374980,-1.97126019512,3.04634368645,-1.60265652283
1620032214884362936,-1.97078153478,3.02087440692,-1.59328428336
1620032214925354957,-1.97418381738,2.97006241817,-1.57491527334
1620032214965414047,-1.97298030811,2.9453649652,-1.5654082951
1620032214973417997,-1.97413394461,2.918506202,-1.55628127189
1620032215017354011,-1.97272661258,2.89401718663,-1.54827466873
1620032215063352108,-1.97184681388,2.84469859751,-1.5321635412
1620032215108325004,-1.97058236054,2.79521189279,-1.51620471087
1620032215151299953,-1.96487699735,2.74501627902,-1.49979182293
1620032215203188896,-1.96461837785,2.71826971975,-1.49020092861
1620032215206414937,-1.96160076146,2.69427107886,-1.48086043203
1620032215245301008,-1.96044786453,2.6711192932,-1.47175650742
1620032215254292011,-1.95751499995,2.64544532117,-1.46189520174
1620032215289369106,-1.95349861793,2.62067406875,-1.45259035364
1620032215331538915,-1.94783358485,2.5720641922,-1.43327062836
1620032215377330064,-1.9441542149,2.54726763565,-1.42384802241
1620032215377484083,-1.94051821643,2.52336437271,-1.41423273922
1620032215422246932,-1.93659317751,2.49842044569,-1.40444538758
1620032215423283100,-1.9338354351,2.47209670182,-1.3943876816
1620032215464412927,-1.9302839251,2.44830000108,-1.3852941136
1620032215506349086,-1.92034472134,2.39864634142,-1.36650491828
1620032215548389911,-1.91301825538,2.37379708347,-1.3580682281
1620032215553294897,-1.90670997862,2.34737523111,-1.34875085987
1620032215601344108,-1.89488574891,2.30017928735,-1.33188367859
1620032215643588066,-1.88925545469,2.27645920917,-1.32401512382
1620032215647239923,-1.88246885926,2.25216208419,-1.316298195
1620032215691365003,-1.875825691,2.22774246383,-1.3078355321
1620032215731267929,-1.86209639565,2.17786264623,-1.29133476997
1620032215775355100,-1.84917141871,2.13087313852,-1.27520917155
1620032215824278116,-1.84179891062,2.10683759031,-1.26809644001
1620032215829332113,-1.83400945406,2.0828587855,-1.25921023915
1620032215868274927,-1.82630171776,2.0619392589,-1.24997175545
1620032215913388967,-1.80912043299,2.0134063265,-1.23104100047
1620032215961354017,-1.79258544215,1.96568309145,-1.21118930509
1620032216009401082,-1.77605714524,1.92115901844,-1.19244351176
1620032216055382013,-1.75351196507,1.87163594917,-1.17276439636
1620032216093573093,-1.74589183034,1.85054546444,-1.16473333652
1620032216094321012,-1.73572113483,1.82704609098,-1.15511748125
1620032216138315916,-1.72428529489,1.80426628975,-1.14561925706
1620032216182298898,-1.71451958404,1.78005595888,-1.13673011191
1620032216186351060,-1.70337326255,1.75800166308,-1.12810314016
1620032216226315021,-1.68209008181,1.71491722269,-1.1111397896
1620032216268237113,-1.67002925625,1.690304298,-1.10314379934
1620032216276354074,-1.65952012633,1.66875974291,-1.09541972782
1620032216314333915,-1.64750590853,1.6442378577,-1.0867432308
1620032216359453916,-1.62332283221,1.60180422377,-1.07084885301
1620032216397341966,-1.59827295492,1.55854753482,-1.05472617647
1620032216440391063,-1.58732707935,1.53593345701,-1.04672398716
1620032216449325084,-1.57446431178,1.51527606503,-1.03905373362
1620032216492367982,-1.56101712716,1.49269195376,-1.03023722988
1620032216541353940,-1.5476952746,1.46862218932,-1.01999460482
1620032216545332908,-1.5374639015,1.45003248878,-1.01179918628
1620032216588361978,-1.50953509344,1.40838952048,-0.992258094771
1620032216632294893,-1.48091177958,1.36677912964,-0.973878007473
1620032216678441047,-1.46764469707,1.34617740009,-0.964284007433
1620032216681395053,-1.4525546566,1.32588959239,-0.955244656616
1620032216722521066,-1.42177977416,1.28526600677,-0.937368437839
1620032216764292955,-1.4069784337,1.26467062012,-0.928114400517
1620032216777340888,-1.39278160688,1.24500580553,-0.920447182048
1620032216814440965,-1.37533044305,1.22579983405,-0.912328922814
1620032216858536005,-1.34539926378,1.18561528029,-0.895664825757
1620032216902389049,-1.33078683969,1.16584661925,-0.887621198201
1620032216905374050,-1.31562789636,1.14677749555,-0.879523287942
1620032216949275970,-1.28178987425,1.1080623701,-0.863482567368
1620032216991341114,-1.26692444089,1.0890816885,-0.855287083571
1620032216998316049,-1.25102147146,1.07027430237,-0.847411948425
1620032217037255048,-1.23645672511,1.05244631206,-0.839251299525
1620032217079421997,-1.20072527193,1.01430011788,-0.823266251831
1620032217126358032,-1.16707706676,0.978511718109,-0.806954829887
1620032217174429893,-1.1488466061,0.95939554576,-0.798586529105
1620032217177333116,-1.13065530896,0.942300015258,-0.789474304461
1620032217218384981,-1.11502990489,0.926329399348,-0.781414582956
1620032217262447118,-1.07746756612,0.890843528305,-0.764439779817
1620032217311366081,-1.06087746653,0.873095778571,-0.756240125434
1620032217311475992,-1.04111829885,0.855808824971,-0.747318124917
1620032217352360010,-1.02275801634,0.837965828752,-0.740071850517
1620032217358342885,-1.00381287364,0.820506101463,-0.731764921656
1620032217402237892,-0.96713996761,0.787507331041,-0.715754110444
1620032217445159912,-0.92894618812,0.754365500987,-0.700806550535
1620032217493411064,-0.909115724766,0.737651269621,-0.691918969024
1620032217498374938,-0.888037832798,0.72218179928,-0.68297325917
1620032217541425943,-0.870189287223,0.70599404725,-0.675189427044
1620032217585386037,-0.829606064284,0.675267120859,-0.658676510294
1620032217629575967,-0.793724462031,0.645468823069,-0.643175244655
1620032217674274921,-0.771675511681,0.63081887611,-0.634972896873
1620032217682341098,-0.751169591085,0.616329356789,-0.627541692153
1620032217720315933,-0.733427859463,0.602060711984,-0.619140247941
1620032217765438079,-0.69189429877,0.573150829318,-0.602816414603
1620032217811307907,-0.648531058465,0.545040401162,-0.586669843408
1620032217857369899,-0.606307756089,0.517870713835,-0.570693443282
1620032217901340961,-0.584090675802,0.502653927636,-0.56271541952
1620032217904284000,-0.563480542857,0.489460918863,-0.554730602365
1620032217945593118,-0.543037878201,0.476043809365,-0.547229497557
1620032217989428997,-0.497983082066,0.449283988518,-0.531901873952
1620032218032356977,-0.454938931668,0.424668835373,-0.517068930791
1620032218075258016,-0.411706835519,0.400050195889,-0.500647440629
1620032218119296073,-0.390476842928,0.388190465635,-0.492065991928
1620032218123218059,-0.368474328102,0.376538530364,-0.48221581204
1620032218162406921,-0.346100890371,0.365351710687,-0.473705503329
1620032218207298040,-0.302231830577,0.342395867313,-0.457147339017
1620032218253500938,-0.257174707818,0.322004194079,-0.441905687825
1620032218303291082,-0.212365791952,0.300275755598,-0.42506937354
1620032218349378108,-0.188601541568,0.289318521934,-0.417383104536
1620032218351433992,-0.165691106418,0.280709976173,-0.408855557782
1620032218395581960,-0.120142215126,0.260018521254,-0.393242041561
1620032218434303998,-0.0962133114035,0.25113714705,-0.38532033977
1620032218450387001,-0.0715137504362,0.24140950056,-0.376915844056
1620032218491327047,-0.0492552779356,0.230976808512,-0.369924575567
1620032218540484905,0.000273217889913,0.214005115089,-0.353846263002
1620032218582258939,0.0460712040685,0.196576262914,-0.338633207606
1620032218626360893,0.0941835761122,0.181576239247,-0.324879999933
1620032218674216032,0.139882348186,0.165982957182,-0.309253739276
1620032218697438955,0.166116899465,0.1583348146,-0.300023886462
1620032218727288007,0.187922514198,0.149827265017,-0.290882025405
1620032218767359018,0.213366890587,0.144679131079,-0.280815940891
1620032218818341970,0.261066409569,0.1309909817,-0.262087529599
1620032218859601020,0.309918937347,0.118505958507,-0.245270529812
1620032218903191089,0.357724943964,0.106037152415,-0.229929959507
1620032218946446895,0.381993163287,0.101342419325,-0.221600180563
1620032218950211048,0.407249879044,0.0948814584397,-0.213288951709
1620032218991297006,0.429884591395,0.0898311502392,-0.205202845162
1620032219033365011,0.479249162642,0.0807500792188,-0.189209779263
1620032219078330039,0.531015493612,0.0716731106353,-0.172937401891
1620032219121248006,0.582182662221,0.0644015896562,-0.156793403729
1620032219165615081,0.606575671972,0.0589164711597,-0.149283329935
1620032219207319021,0.656428451731,0.0529638206358,-0.133791107656
1620032219254214048,0.70568135308,0.0465868604473,-0.118616018702
1620032219298353910,0.754437813863,0.0406348924989,-0.101562755595
1620032219340396881,0.778801801286,0.0393879708305,-0.0915358016723
1620032219345371961,0.803546764572,0.0372833345979,-0.082186359428
1620032219389184951,0.828833099265,0.0344705857046,-0.0723822739439
1620032219434343099,0.877883106395,0.0317456451953,-0.0533963850752
1620032219478317975,0.902660558836,0.030321275473,-0.0433052086026
1620032219488249063,0.92713257863,0.0294742587737,-0.0341674642292
1620032219528363943,0.978044515407,0.0281493470355,-0.0160635136044
1620032219574335098,1.02620056507,0.0274706384022,3.41418384532e-05
1620032219617369890,1.05490041532,0.0273695378431,0.0089955325185
1620032219625577926,1.07759400359,0.0282301199316,0.0161221495392
1620032219665306091,1.10234798668,0.0289972953621,0.0237664859506
1620032219706294059,1.15395953027,0.0303193699066,0.0398089711396
1620032219752296924,1.17850162542,0.0316795017936,0.0470928633263
1620032219756370067,1.20157528105,0.033725615794,0.0551664556842
1620032219797584056,1.23127671664,0.0341202290239,0.0633070071711
1620032219838241100,1.25341792559,0.0355415360812,0.070398629353
1620032219841382980,1.27834454161,0.0399192402867,0.0773542790835
1620032219883352994,1.32789560382,0.0445478294535,0.0939031052956
1620032219925352096,1.37779002229,0.0483118274073,0.113182587438
1620032219969341993,1.4002397393,0.0518142755602,0.122167218742
1620032219978290081,1.42646558771,0.054623613997,0.132006378168
1620032220023375034,1.47491959794,0.0613287808457,0.151296468242
1620032220064374923,1.49851856997,0.0659446018704,0.161687629754
1620032220075361013,1.5237211584,0.0690571799676,0.170512308315
1620032220115405082,1.54751740004,0.0738703559483,0.179458977606
1620032220155277967,1.59506685835,0.0836332451965,0.19874034838
1620032220196300983,1.62049842093,0.0876321931198,0.208464134176
1620032220206281900,1.647678688,0.0949971257193,0.218927569064
1620032220244589090,1.6701929841,0.099945608138,0.2270351545
1620032220286340951,1.71833190283,0.111376509738,0.245784108933
1620032220331327915,1.76802433971,0.123602067411,0.264125936757
1620032220376269102,1.81664692657,0.13802036801,0.281395094195
1620032220417346000,1.84281085369,0.14585072179,0.290573516696
1620032220420193910,1.86370598956,0.152429429303,0.298290129165
1620032220468334913,1.89019473558,0.160133068968,0.307905979251
1620032220509284019,1.93580256782,0.178036828492,0.326321102887
1620032220554445028,1.98307250345,0.192309183396,0.345486664606
1620032220597316980,2.00769251691,0.200316527999,0.355686831163
1620032220603343963,2.0311445253,0.209836111673,0.365442026548
1620032220645338058,2.0548150671,0.218143249153,0.37457281387
1620032220689418077,2.09932736255,0.237063234147,0.394122781777
1620032220728404998,2.14473558712,0.255323360802,0.413557817754
1620032220769426107,2.16761430928,0.266145680993,0.422956915153
1620032220772315979,2.19095124475,0.277401458052,0.432410358874
1620032220815386056,2.21372265854,0.28764190011,0.442464745348
1620032220863380908,2.25880938029,0.308172365229,0.460860108827
1620032220905339956,2.30464037037,0.332041908902,0.479209768105
1620032220946275949,2.34624753459,0.355047825625,0.496223126861
1620032220990349054,2.36963506405,0.367473234409,0.504655581904
1620032221004596948,2.39051238513,0.379910272792,0.512295031489
1620032221045278072,2.41505501623,0.390707704963,0.521119279133
1620032221087116956,2.45660094053,0.417907895305,0.536750758647
1620032221131357908,2.49863896528,0.442945305679,0.554426406721
1620032221171394109,2.52024105006,0.456097732851,0.564277962185
1620032221176412105,2.54018008393,0.468668353528,0.573926891505
1620032221220227003,2.56103232659,0.48345386605,0.583218477952
1620032221265311002,2.60268055306,0.511509233235,0.602386080059
1620032221306319952,2.64276716742,0.539528463297,0.622554271873
1620032221349380016,2.68276612518,0.568416493173,0.640958354312
1620032221398376941,2.70256609201,0.583001955394,0.649930170348
1620032221400392055,2.72202261843,0.598089780683,0.65991455183
1620032221437375068,2.7429772129,0.613889333929,0.668968397331
1620032221482373952,2.78288172478,0.646976592278,0.688588730597
1620032221525410890,2.82024428624,0.678988366559,0.705945032096
1620032221570250988,2.83846077677,0.695098306323,0.714448645649
1620032221572273015,2.85766712068,0.711005072251,0.722728288552
1620032221615355014,2.87657034489,0.72744549772,0.730793413791
1620032221655344009,2.91305647856,0.762333945086,0.747437578741
1620032221707423925,2.93014403155,0.779979051385,0.754827449376
1620032221709403038,2.95126413837,0.79725612671,0.763624551906
1620032221752332925,2.96657007435,0.813482823476,0.770826369734
1620032221798403024,3.00365791585,0.848405099417,0.787529919183
1620032221838393926,3.03879309911,0.885773609955,0.807569607096
1620032221884371995,3.07147425554,0.920477235034,0.826325458178
1620032221932292938,3.10473536723,0.956779934383,0.84502044209
1620032221974301099,3.1373570072,0.994452572692,0.864028149472
1620032222016393899,3.1538910535,1.01515099157,0.873633312221
1620032222039302110,3.17167170569,1.03422905733,0.883482211469
1620032222081651926,3.20186271686,1.07207756656,0.901306465858
1620032222123294115,3.21827574244,1.09214113138,0.910383319652
1620032222126193046,3.23374307413,1.11273754368,0.919663386034
1620032222165417909,3.24863773726,1.13087150862,0.928184278285
1620032222208226919,3.2779705792,1.17277135483,0.944803162857
1620032222247554063,3.29360269173,1.19527664098,0.953360372837
1620032222292381048,3.32294783831,1.23593392784,0.969295105512
1620032222340457916,3.34978327469,1.27778233179,0.986093983446
1620032222384284019,3.37696110131,1.31932370785,1.00246376535
1620032222432193994,3.40407339811,1.36172462042,1.01891242966
1620032222479378938,3.41731668177,1.38411994544,1.02911011265
1620032222479475021,3.42890360227,1.40465543405,1.03816218454
1620032222522442102,3.44275396358,1.42681207904,1.04786616175
1620032222566462039,3.465374793,1.47005710831,1.06726846612
1620032222617343902,3.48919035753,1.51359417649,1.08614448768
1620032222655323028,3.51217360875,1.55755390031,1.10511200739
1620032222700573921,3.52218516382,1.58149278437,1.11455117186
1620032222707386970,3.53478564553,1.60498587384,1.12410146159
1620032222745366096,3.54591174702,1.62707688386,1.13267781525
1620032222797374010,3.56794748388,1.67124537825,1.14972685237
1620032222837321043,3.5865317761,1.71789378436,1.16636133238
1620032222880323886,3.6050599358,1.76370533605,1.18261113444
1620032222924433946,3.61500453761,1.78792901701,1.19059425287
1620032222925338983,3.62538161685,1.81042159987,1.19877778035
1620032222971365928,3.63363534868,1.83476664302,1.20662604347
1620032223016454935,3.65140875567,1.88144051993,1.22288703224
1620032223065412998,3.66712817121,1.93005878278,1.23978448574
1620032223116524934,3.68401610407,1.97570513545,1.2558063116
1620032223160398960,3.69966646453,2.02542825482,1.27320061775
1620032223201390027,3.7120750159,2.07265312064,1.29023871344
1620032223243294954,3.71865193547,2.09700619634,1.29885509573
1620032223257379055,3.72593102546,2.1217184172,1.30706136333
1620032223297405958,3.73324646459,2.14577184049,1.31570623823
1620032223344315052,3.74457889967,2.19362203698,1.33195324955
1620032223389357089,3.7571403375,2.24402303477,1.34810823318
1620032223434303045,3.76918720514,2.29310527554,1.36415710499
1620032223475331068,3.77391097925,2.31783708196,1.37206532174
1620032223479326009,3.77825344634,2.3411917161,1.38001326227
1620032223522310018,3.78221207819,2.36711589199,1.38852022524
1620032223564373970,3.78886160037,2.41542047778,1.40449052647
1620032223609436988,3.79786784086,2.46392717098,1.4203958713
1620032223656327009,3.80499885941,2.51438547027,1.43677533472
1620032223700344085,3.80886420877,2.53915610353,1.44440461798
1620032223706423997,3.81114398704,2.56378943252,1.45280255117
1620032223750346899,3.81439801649,2.5882177769,1.46049841416
1620032223789278030,3.82005863793,2.63781423324,1.47675747096
1620032223835226058,3.82583682937,2.68883448544,1.49273437609
1620032223883460044,3.82890770023,2.74066590731,1.50851728452
1620032223922514915,3.83211219755,2.76670930701,1.51627030135
1620032223927195072,3.83161791033,2.79212119373,1.52454384462
1620032223969389915,3.83272916363,2.8170438844,1.53182866302
1620032224014399051,3.83431160315,2.86736044936,1.54654457902
1620032224060308933,3.83321802034,2.91691570845,1.56222456143
1620032224101244926,3.83479134116,2.96663044391,1.58000362468
1620032224145229101,3.83488478439,2.99103007625,1.5885236503
1620032224156302928,3.8339341493,3.01674738606,1.59647065093
1620032224200346946,3.83272727287,3.04130650395,1.60473793693
1620032224247505903,3.83143011963,3.0932354426,1.62080150809
1620032224291268110,3.82719530916,3.14291648318,1.63705277127
1620032224337275028,3.82479070956,3.19173170097,1.652854741
1620032224381612062,3.81938860536,3.24158163216,1.66891704452
1620032224426268100,3.81347759848,3.29270386761,1.68517871237
1620032224470354080,3.81165647501,3.3174941526,1.69304609215
1620032224475208044,3.80720589954,3.34374276124,1.70081068501
1620032224512320995,3.80464607689,3.37206202263,1.70893592147
1620032224553603887,3.80050520629,3.39569550944,1.71670196252
1620032224558386087,3.79674821001,3.42093851358,1.72391963623
1620032224600423097,3.79170932897,3.44495716705,1.73178054141
1620032224603255987,3.78803775294,3.46908411828,1.7389356687
1620032224652326107,3.78357991873,3.4939473325,1.74657262203
1620032224694554090,3.78024160077,3.51696901049,1.75371356553
1620032224694655895,3.77527567823,3.54249000685,1.76242019895
1620032224739342927,3.76958818053,3.56656749208,1.771965636
1620032224742441892,3.76632674377,3.59123700587,1.78186829598
1620032224782386064,3.75538874005,3.64019208562,1.79965268948
1620032224820358037,3.74964818695,3.66385300076,1.80783941237
1620032224824265003,3.74173834653,3.68817542392,1.8159761458
1620032224868308067,3.73595601781,3.71350640782,1.82402636665
1620032224916378021,3.72957146617,3.73684832041,1.83249122265
1620032224922224044,3.72395729035,3.76396344453,1.84016161072
1620032224960472106,3.71030699027,3.80908929574,1.85660689612
1620032225006277084,3.69519625155,3.8582923567,1.8731871185
1620032225050302028,3.6876796553,3.88253454704,1.88062327269
1620032225052278041,3.68025865514,3.90882208953,1.88951678765
1620032225091411113,3.67228924832,3.92955179053,1.8965176234
1620032225135332107,3.65585874879,3.97838375262,1.91200772509
1620032225180399894,3.6381949471,4.02582902249,1.92708590363
1620032225222357034,3.6291640499,4.05047230831,1.93488707342
1620032225227288007,3.62169587763,4.07304148642,1.94221295904
1620032225270318984,3.61002251059,4.09770816021,1.95024130718
1620032225311247110,3.60203415523,4.11984633106,1.9589580078
1620032225313191890,3.59312902224,4.14194698047,1.96804969711
1620032225356442928,3.58362695538,4.16731307815,1.97812327998
1620032225358267068,3.57302028177,4.18828148964,1.98725272565
1620032225397326946,3.56304593746,4.21019136613,1.99677514211
1620032225444295883,3.54066088785,4.25820639277,2.01704418659
1620032225491435050,3.52131152705,4.29956913931,2.03253303155
1620032225535428047,3.49780717729,4.34366493545,2.04802793734
1620032225582369089,3.47356007184,4.38904512568,2.06478008241
1620032225625291109,3.45073814524,4.43239299044,2.08008060616
1620032225669420957,3.43731639919,4.45426017031,2.0879692141
1620032225677294015,3.42433405917,4.47866720925,2.0964694249
1620032225720374107,3.41123799074,4.50169719893,2.10390738148
1620032225764544010,3.3849201805,4.54344788974,2.11859391569
1620032225802393913,3.35956463316,4.58629260655,2.13311420745
1620032225848336935,3.34626501543,4.60738132496,2.14078210092
1620032225855345964,3.3309831574,4.62888435362,2.14925704184
1620032225898365974,3.31883317548,4.6476317097,2.15790759576
1620032225944322109,3.29059314323,4.69033986905,2.17786809501
1620032225985246896,3.26266703852,4.73022996149,2.19627334325
1620032226033425092,3.23487713278,4.7706529508,2.21613652652
1620032226081401109,3.20204474348,4.80975722649,2.23516819586
1620032226125319957,3.18699957806,4.82753942882,2.24393000118
1620032226128319978,3.17354666177,4.84807820615,2.25273059261
1620032226167155981,3.15461841908,4.8692560508,2.26108020956
1620032226211281061,3.12432630659,4.90661840962,2.27776607295
1620032226256381034,3.10843510637,4.92689123804,2.28583041724
1620032226258322000,3.09064593677,4.94602720389,2.2946141022
1620032226298398017,3.07294212543,4.96388970242,2.30233229773
1620032226336375951,3.04103750969,5.00258235845,2.31790708233
1620032226381448030,3.00622179057,5.03886457557,2.33306650339
1620032226423350095,2.98851678654,5.05671759815,2.34072172088
1620032226429279088,2.9692281069,5.07782077626,2.34974609259
1620032226469362020,2.95459236425,5.09405314313,2.35698609712
1620032226511363029,2.92135801504,5.12785398501,2.3761857031
1620032226555563926,2.88128813309,5.16384206775,2.39564102889
1620032226594419956,2.86180503142,5.18011507096,2.40507850216
1620032226606209993,2.84488849862,5.19668624347,2.41434078638
1620032226646297931,2.82584626879,5.21180300849,2.42407450054
1620032226690608978,2.78451877648,5.24730692051,2.44544547993
1620032226733344078,2.7503785916,5.27563567563,2.46287173471
1620032226779341936,2.73042629461,5.29178986772,2.47268482232
1620032226780420064,2.71019239467,5.30678430377,2.48215992842
1620032226820359945,2.69020988749,5.32242293187,2.49201925484
1620032226865314960,2.6490233995,5.35154876078,2.51072095351
1620032226910310029,2.61081670959,5.37979078941,2.52767520133
1620032226950305938,2.58960627779,5.39554986986,2.53676796466
1620032226954282999,2.56978619342,5.41016710867,2.5451174669
1620032226998610973,2.54794191777,5.42374239482,2.55395147274
1620032227043298006,2.50663612195,5.45156902474,2.56980538252
1620032227089344978,2.46464496896,5.47702034679,2.58775332217
1620032227130279064,2.42300767223,5.50281909606,2.60711819911
1620032227170247077,2.40118363808,5.51531662411,2.6166951244
1620032227174279928,2.37868604897,5.52789632465,2.6262512702
1620032227221244096,2.35820476065,5.5404120819,2.6357856625
1620032227266438007,2.31525504835,5.56334076276,2.65581941274
1620032227310379981,2.26983727059,5.5850831752,2.6745296291
1620032227360274076,2.22421357901,5.60766250105,2.69401304003
1620032227406272888,2.17857085064,5.62934348904,2.71325836873
1620032227445555925,2.15715314478,5.63942890133,2.72211573726
1620032227455313920,2.13177545151,5.64911633588,2.73203378444
1620032227500152111,2.11033328471,5.65871522253,2.74085661082
1620032227537386894,2.08217163669,5.6700905333,2.75141483316
1620032227537503957,2.06215002417,5.67789385727,2.75847847671
1620032227583343029,2.01596365572,5.6961916791,2.77500770208
1620032227624330043,1.99433113389,5.70475397244,2.78299849373
1620032227634295940,1.96687677748,5.71317039389,2.79170316157
1620032227672390937,1.94671884601,5.72096119524,2.79887186443
1620032227714342117,1.89879945975,5.73736636479,2.81532112354
1620032227762353897,1.85243243878,5.75352014116,2.83368167228
1620032227806304931,1.80571199007,5.76706378915,2.85245778039
1620032227848278999,1.78110231668,5.77302141794,2.86270515526
1620032227854263067,1.75784480597,5.7809943623,2.87239893487
1620032227896338939,1.73400182892,5.78742538744,2.88139357663
1620032227940357923,1.68434793248,5.80036279948,2.90084998081
1620032227984298944,1.63685953809,5.81096361847,2.91969701804
1620032228030307054,1.58682577733,5.82292222529,2.93916434557
1620032228076236009,1.56103321633,5.82721121228,2.94843462079
1620032228082292079,1.53905613978,5.83194023796,2.95745788058
1620032228119333982,1.51369261211,5.8360468909,2.96662070883
1620032228165328979,1.46472286136,5.84492653407,2.98399646584
1620032228210391044,1.41456213684,5.85250096752,3.00012272455
1620032228253294944,1.36513363332,5.85919176193,3.01616512503
1620032228294255971,1.33932363312,5.86267168513,3.02441204535
1620032228310384988,1.31325132114,5.86518024181,3.03272608403
1620032228349268913,1.2896623076,5.86632976649,3.04048731262
1620032228394294977,1.24017370598,5.87151847858,3.05680013802
1620032228438307046,1.1843762247,5.87572915608,3.07695030063
1620032228478264093,1.15898847753,5.87774844041,3.08677469992
1620032228481307983,1.1322359477,5.87876836635,3.09721298633
1620032228520344018,1.10801084353,5.87864146142,3.10648326777
1620032228562200069,1.06077599397,5.87973577597,3.12490306175
1620032228608320951,1.03555454588,5.88152731475,3.13425410157
1620032228609324932,1.00961261697,5.88129296105,-3.13899377583
1620032228649410009,0.982709564743,5.87971087053,-3.12955406148
1620032228663248062,0.957114988224,5.88011706151,-3.11990448321
1620032228705318927,0.934630264862,5.87887191549,-3.11122723402
1620032228752435922,0.909141139232,5.87798758275,-3.10233389225
1620032228754318952,0.883887875685,5.87688606018,-3.09333295561
1620032228798393011,0.834828510603,5.87421366252,-3.07588359871
1620032228841489076,0.786259790282,5.87122959773,-3.05980725361
1620032228884346961,0.7608367672,5.8682882265,-3.0515571531
1620032228889410972,0.736423368624,5.86651334382,-3.04346912698
1620032228940267086,0.68638032423,5.8607148339,-3.02721722904
1620032228982333898,0.660614657938,5.85827605226,-3.01937555747
1620032228989576101,0.637246721625,5.85431623586,-3.01102898372
1620032229034356117,0.589156615542,5.84862356426,-2.9951018311
1620032229077333927,0.560995295879,5.84366159484,-2.98664681785
1620032229079384088,0.538710645447,5.83922500794,-2.97828310327
1620032229124233007,0.512510369699,5.83484395796,-2.96914449796
1620032229166392087,0.463453353769,5.82700150315,-2.95088108829
1620032229213288068,0.415491852995,5.81527223564,-2.93316239843
1620032229259264945,0.365509416857,5.80382757967,-2.9152550747
1620032229302561044,0.340706069625,5.79740543875,-2.90740089941
1620032229305269002,0.315849221056,5.79371649454,-2.89846260994
1620032229344429969,0.292604177349,5.78764033705,-2.89083022967
1620032229385364055,0.243366396202,5.7738002644,-2.87374840313
1620032229430413007,0.194027893705,5.76074222805,-2.85660833983
1620032229477282047,0.169813456379,5.75428400696,-2.84912083692
1620032229480338096,0.146669644799,5.74733457765,-2.84110240722
