%time,field.header.seq,field.header.stamp,field.header.frame_id,field.child_frame_id,field.pose.pose.position.x,field.pose.pose.position.y,field.pose.pose.position.z,field.pose.pose.orientation.x,field.pose.pose.orientation.y,field.pose.pose.orientation.z,field.pose.pose.orientation.w,field.pose.covariance0,field.pose.covariance1,field.pose.covariance2,field.pose.covariance3,field.pose.covariance4,field.pose.covariance5,field.pose.covariance6,field.pose.covariance7,field.pose.covariance8,field.pose.covariance9,field.pose.covariance10,field.pose.covariance11,field.pose.covariance12,field.pose.covariance13,field.pose.covariance14,field.pose.covariance15,field.pose.covariance16,field.pose.covariance17,field.pose.covariance18,field.pose.covariance19,field.pose.covariance20,field.pose.covariance21,field.pose.covariance22,field.pose.covariance23,field.pose.covariance24,field.pose.covariance25,field.pose.covariance26,field.pose.covariance27,field.pose.covariance28,field.pose.covariance29,field.pose.covariance30,field.pose.covariance31,field.pose.covariance32,field.pose.covariance33,field.pose.covariance34,field.pose.covariance35,field.twist.twist.linear.x,field.twist.twist.linear.y,field.twist.twist.linear.z,field.twist.twist.angular.x,field.twist.twist.angular.y,field.twist.twist.angular.z,field.twist.covariance0,field.twist.covariance1,field.twist.covariance2,field.twist.covariance3,field.twist.covariance4,field.twist.covariance5,field.twist.covariance6,field.twist.covariance7,field.twist.covariance8,field.twist.covariance9,field.twist.covariance10,field.twist.covariance11,field.twist.covariance12,field.twist.covariance13,field.twist.covariance14,field.twist.covariance15,field.twist.covariance16,field.twist.covariance17,field.twist.covariance18,field.twist.covariance19,field.twist.covariance20,field.twist.covariance21,field.twist.covariance22,field.twist.covariance23,field.twist.covariance24,field.twist.covariance25,field.twist.covariance26,field.twist.covariance27,field.twist.covariance28,field.twist.covariance29,field.twist.covariance30,field.twist.covariance31,field.twist.covariance32,field.twist.covariance33,field.twist.covariance34,field.twist.covariance35
271341000000,4932,271341000000,robotros_test/odom,robotros_test/chassis,3.47301711214e-06,-1.28423519737e-10,0.0,0.0,0.0,-3.80788901498e-05,0.999999999275,1e-05,0.0,0.0,0.0,0.0,0.0,0.0,1e-05,0.0,0.0,0.0,0.0,0.0,0.0,1e+12,0.0,0.0,0.0,0.0,0.0,0.0,1e+12,0.0,0.0,0.0,0.0,0.0,0.0,1e+12,0.0,0.0,0.0,0.0,0.0,0.0,0.001,1.08436775886e-08,0.0,0.0,0.0,0.0,1.85402602944e-06,0.0,0.0,0.0,0.0,0.0,0.0,0.0,0.0,0.0,0.0,0.0,0.0,0.0,0.0,0.0,0.0,0.0,0.0,0.0,0.0,0.0,0.0,0.0,0.0,0.0,0.0,0.0,0.0,0.0,0.0,0.0,0.0,0.0,0.0,0.0,0.0
271390000000,4933,271390000000,robotros_test/odom,robotros_test/chassis,3.47370135125e-06,-1.28475635878e-10,0.0,0.0,0.0,-3.80866226593e-05,0.999999999275,1e-05,0.0,0.0,0.0,0.0,0.0,0.0,1e-05,0.0,0.0,0.0,0.0,0.0,0.0,1e+12,0.0,0.0,0.0,0.0,0.0,0.0,1e+12,0.0,0.0,0.0,0.0,0.0,0.0,1e+12,0.0,0.0,0.0,0.0,0.0,0.0,0.001,1.08436844407e-08,0.0,0.0,0.0,0.0,1.85402589191e-06,0.0,0.0,0.0,0.0,0.0,0.0,0.0,0.0,0.0,0.0,0.0,0.0,0.0,0.0,0.0,0.0,0.0,0.0,0.0,0.0,0.0,0.0,0.0,0.0,0.0,0.0,0.0,0.0,0.0,0.0,0.0,0.0,0.0,0.0,0.0,0.0
271438000000,4934,271438000000,robotros_test/odom,robotros_test/chassis,3.47438559043e-06,-1.28527762606e-10,0.0,0.0,0.0,-3.80943551735e-05,0.999999999274,1e-05,0.0,0.0,0.0,0.0,0.0,0.0,1e-05,0.0,0.0,0.0,0.0,0.0,0.0,1e+12,0.0,0.0,0.0,0.0,0.0,0.0,1e+12,0.0,0.0,0.0,0.0,0.0,0.0,1e+12,0.0,0.0,0.0,0.0,0.0,0.0,0.001,1.08436914816e-08,0.0,0.0,0.0,0.0,1.85402575508e-06,0.0,0.0,0.0,0.0,0.0,0.0,0.0,0.0,0.0,0.0,0.0,0.0,0.0,0.0,0.0,0.0,0.0,0.0,0.0,0.0,0.0,0.0,0.0,0.0,0.0,0.0,0.0,0.0,0.0,0.0,0.0,0.0,0.0,0.0,0.0,0.0
271490000000,4935,271490000000,robotros_test/odom,robotros_test/chassis,3.47506982969e-06,-1.28579899922e-10,0.0,0.0,0.0,-3.81020876925e-05,0.999999999274,1e-05,0.0,0.0,0.0,0.0,0.0,0.0,1e-05,0.0,0.0,0.0,0.0,0.0,0.0,1e+12,0.0,0.0,0.0,0.0,0.0,0.0,1e+12,0.0,0.0,0.0,0.0,0.0,0.0,1e+12,0.0,0.0,0.0,0.0,0.0,0.0,0.001,1.08436985733e-08,0.0,0.0,0.0,0.0,1.85402561842e-06,0.0,0.0,0.0,0.0,0.0,0.0,0.0,0.0,0.0,0.0,0.0,0.0,0.0,0.0,0.0,0.0,0.0,0.0,0.0,0.0,0.0,0.0,0.0,0.0,0.0,0.0,0.0,0.0,0.0,0.0,0.0,0.0,0.0,0.0,0.0,0.0
271540000000,4936,271540000000,robotros_test/odom,robotros_test/chassis,3.47575406903e-06,-1.28632047826e-10,0.0,0.0,0.0,-3.81098202162e-05,0.999999999274,1e-05,0.0,0.0,0.0,0.0,0.0,0.0,1e-05,0.0,0.0,0.0,0.0,0.0,0.0,1e+12,0.0,0.0,0.0,0.0,0.0,0.0,1e+12,0.0,0.0,0.0,0.0,0.0,0.0,1e+12,0.0,0.0,0.0,0.0,0.0,0.0,0.001,1.08437055714e-08,0.0,0.0,0.0,0.0,1.85402548131e-06,0.0,0.0,0.0,0.0,0.0,0.0,0.0,0.0,0.0,0.0,0.0,0.0,0.0,0.0,0.0,0.0,0.0,0.0,0.0,0.0,0.0,0.0,0.0,0.0,0.0,0.0,0.0,0.0,0.0,0.0,0.0,0.0,0.0,0.0,0.0,0.0
271590000000,4937,271590000000,robotros_test/odom,robotros_test/chassis,3.47643830844e-06,-1.28684206316e-10,0.0,0.0,0.0,-3.81175527447e-05,0.999999999274,1e-05,0.0,0.0,0.0,0.0,0.0,0.0,1e-05,0.0,0.0,0.0,0.0,0.0,0.0,1e+12,0.0,0.0,0.0,0.0,0.0,0.0,1e+12,0.0,0.0,0.0,0.0,0.0,0.0,1e+12,0.0,0.0,0.0,0.0,0.0,0.0,0.001,1.08437124946e-08,0.0,0.0,0.0,0.0,1.85402534401e-06,0.0,0.0,0.0,0.0,0.0,0.0,0.0,0.0,0.0,0.0,0.0,0.0,0.0,0.0,0.0,0.0,0.0,0.0,0.0,0.0,0.0,0.0,0.0,0.0,0.0,0.0,0.0,0.0,0.0,0.0,0.0,0.0,0.0,0.0,0.0,0.0
271640000000,4938,271640000000,robotros_test/odom,robotros_test/chassis,3.47712254792e-06,-1.28736375395e-10,0.0,0.0,0.0,-3.81252852778e-05,0.999999999273,1e-05,0.0,0.0,0.0,0.0,0.0,0.0,1e-05,0.0,0.0,0.0,0.0,0.0,0.0,1e+12,0.0,0.0,0.0,0.0,0.0,0.0,1e+12,0.0,0.0,0.0,0.0,0.0,0.0,1e+12,0.0,0.0,0.0,0.0,0.0,0.0,0.001,1.084371939e-08,0.0,0.0,0.0,0.0,1.85402520658e-06,0.0,0.0,0.0,0.0,0.0,0.0,0.0,0.0,0.0,0.0,0.0,0.0,0.0,0.0,0.0,0.0,0.0,0.0,0.0,0.0,0.0,0.0,0.0,0.0,0.0,0.0,0.0,0.0,0.0,0.0,0.0,0.0,0.0,0.0,0.0,0.0
271690000000,4939,271690000000,robotros_test/odom,robotros_test/chassis,3.47780678748e-06,-1.28788555061e-10,0.0,0.0,0.0,-3.81330178157e-05,0.999999999273,1e-05,0.0,0.0,0.0,0.0,0.0,0.0,1e-05,0.0,0.0,0.0,0.0,0.0,0.0,1e+12,0.0,0.0,0.0,0.0,0.0,0.0,1e+12,0.0,0.0,0.0,0.0,0.0,0.0,1e+12,0.0,0.0,0.0,0.0,0.0,0.0,0.001,1.08437264004e-08,0.0,0.0,0.0,0.0,1.8540250696e-06,0.0,0.0,0.0,0.0,0.0,0.0,0.0,0.0,0.0,0.0,0.0,0.0,0.0,0.0,0.0,0.0,0.0,0.0,0.0,0.0,0.0,0.0,0.0,0.0,0.0,0.0,0.0,0.0,0.0,0.0,0.0,0.0,0.0,0.0,0.0,0.0
271740000000,4940,271740000000,robotros_test/odom,robotros_test/chassis,3.47849102712e-06,-1.28840745315e-10,0.0,0.0,0.0,-3.81407503583e-05,0.999999999273,1e-05,0.0,0.0,0.0,0.0,0.0,0.0,1e-05,0.0,0.0,0.0,0.0,0.0,0.0,1e+12,0.0,0.0,0.0,0.0,0.0,0.0,1e+12,0.0,0.0,0.0,0.0,0.0,0.0,1e+12,0.0,0.0,0.0,0.0,0.0,0.0,0.001,1.08437334871e-08,0.0,0.0,0.0,0.0,1.85402493294e-06,0.0,0.0,0.0,0.0,0.0,0.0,0.0,0.0,0.0,0.0,0.0,0.0,0.0,0.0,0.0,0.0,0.0,0.0,0.0,0.0,0.0,0.0,0.0,0.0,0.0,0.0,0.0,0.0,0.0,0.0,0.0,0.0,0.0,0.0,0.0,0.0
271790000000,4941,271790000000,robotros_test/odom,robotros_test/chassis,3.47917526683e-06,-1.28892946156e-10,0.0,0.0,0.0,-3.81484829057e-05,0.999999999272,1e-05,0.0,0.0,0.0,0.0,0.0,0.0,1e-05,0.0,0.0,0.0,0.0,0.0,0.0,1e+12,0.0,0.0,0.0,0.0,0.0,0.0,1e+12,0.0,0.0,0.0,0.0,0.0,0.0,1e+12,0.0,0.0,0.0,0.0,0.0,0.0,0.001,1.08437403825e-08,0.0,0.0,0.0,0.0,1.85402479541e-06,0.0,0.0,0.0,0.0,0.0,0.0,0.0,0.0,0.0,0.0,0.0,0.0,0.0,0.0,0.0,0.0,0.0,0.0,0.0,0.0,0.0,0.0,0.0,0.0,0.0,0.0,0.0,0.0,0.0,0.0,0.0,0.0,0.0,0.0,0.0,0.0
271840000000,4942,271840000000,robotros_test/odom,robotros_test/chassis,3.47985950662e-06,-1.28945157585e-10,0.0,0.0,0.0,-3.81562154578e-05,0.999999999272,1e-05,0.0,0.0,0.0,0.0,0.0,0.0,1e-05,0.0,0.0,0.0,0.0,0.0,0.0,1e+12,0.0,0.0,0.0,0.0,0.0,0.0,1e+12,0.0,0.0,0.0,0.0,0.0,0.0,1e+12,0.0,0.0,0.0,0.0,0.0,0.0,0.001,1.08437474843e-08,0.0,0.0,0.0,0.0,1.85402465874e-06,0.0,0.0,0.0,0.0,0.0,0.0,0.0,0.0,0.0,0.0,0.0,0.0,0.0,0.0,0.0,0.0,0.0,0.0,0.0,0.0,0.0,0.0,0.0,0.0,0.0,0.0,0.0,0.0,0.0,0.0,0.0,0.0,0.0,0.0,0.0,0.0
271890000000,4943,271890000000,robotros_test/odom,robotros_test/chassis,3.48054374648e-06,-1.28997379601e-10,0.0,0.0,0.0,-3.81639480146e-05,0.999999999272,1e-05,0.0,0.0,0.0,0.0,0.0,0.0,1e-05,0.0,0.0,0.0,0.0,0.0,0.0,1e+12,0.0,0.0,0.0,0.0,0.0,0.0,1e+12,0.0,0.0,0.0,0.0,0.0,0.0,1e+12,0.0,0.0,0.0,0.0,0.0,0.0,0.001,1.08437543799e-08,0.0,0.0,0.0,0.0,1.8540245214e-06,0.0,0.0,0.0,0.0,0.0,0.0,0.0,0.0,0.0,0.0,0.0,0.0,0.0,0.0,0.0,0.0,0.0,0.0,0.0,0.0,0.0,0.0,0.0,0.0,0.0,0.0,0.0,0.0,0.0,0.0,0.0,0.0,0.0,0.0,0.0,0.0
271940000000,4944,271940000000,robotros_test/odom,robotros_test/chassis,3.48122798642e-06,-1.29049612206e-10,0.0,0.0,0.0,-3.81716805761e-05,0.999999999271,1e-05,0.0,0.0,0.0,0.0,0.0,0.0,1e-05,0.0,0.0,0.0,0.0,0.0,0.0,1e+12,0.0,0.0,0.0,0.0,0.0,0.0,1e+12,0.0,0.0,0.0,0.0,0.0,0.0,1e+12,0.0,0.0,0.0,0.0,0.0,0.0,0.001,1.08437613588e-08,0.0,0.0,0.0,0.0,1.85402438427e-06,0.0,0.0,0.0,0.0,0.0,0.0,0.0,0.0,0.0,0.0,0.0,0.0,0.0,0.0,0.0,0.0,0.0,0.0,0.0,0.0,0.0,0.0,0.0,0.0,0.0,0.0,0.0,0.0,0.0,0.0,0.0,0.0,0.0,0.0,0.0,0.0
271990000000,4945,271990000000,robotros_test/odom,robotros_test/chassis,3.48191222644e-06,-1.29101855397e-10,0.0,0.0,0.0,-3.81794131424e-05,0.999999999271,1e-05,0.0,0.0,0.0,0.0,0.0,0.0,1e-05,0.0,0.0,0.0,0.0,0.0,0.0,1e+12,0.0,0.0,0.0,0.0,0.0,0.0,1e+12,0.0,0.0,0.0,0.0,0.0,0.0,1e+12,0.0,0.0,0.0,0.0,0.0,0.0,0.001,1.08437682771e-08,0.0,0.0,0.0,0.0,1.8540242469e-06,0.0,0.0,0.0,0.0,0.0,0.0,0.0,0.0,0.0,0.0,0.0,0.0,0.0,0.0,0.0,0.0,0.0,0.0,0.0,0.0,0.0,0.0,0.0,0.0,0.0,0.0,0.0,0.0,0.0,0.0,0.0,0.0,0.0,0.0,0.0,0.0
272040000000,4946,272040000000,robotros_test/odom,robotros_test/chassis,3.48259646653e-06,-1.29154109177e-10,0.0,0.0,0.0,-3.81871457134e-05,0.999999999271,1e-05,0.0,0.0,0.0,0.0,0.0,0.0,1e-05,0.0,0.0,0.0,0.0,0.0,0.0,1e+12,0.0,0.0,0.0,0.0,0.0,0.0,1e+12,0.0,0.0,0.0,0.0,0.0,0.0,1e+12,0.0,0.0,0.0,0.0,0.0,0.0,0.001,1.08437753051e-08,0.0,0.0,0.0,0.0,1.8540241099e-06,0.0,0.0,0.0,0.0,0.0,0.0,0.0,0.0,0.0,0.0,0.0,0.0,0.0,0.0,0.0,0.0,0.0,0.0,0.0,0.0,0.0,0.0,0.0,0.0,0.0,0.0,0.0,0.0,0.0,0.0,0.0,0.0,0.0,0.0,0.0,0.0
272090000000,4947,272090000000,robotros_test/odom,robotros_test/chassis,3.48328070669e-06,-1.29206373544e-10,0.0,0.0,0.0,-3.81948782892e-05,0.999999999271,1e-05,0.0,0.0,0.0,0.0,0.0,0.0,1e-05,0.0,0.0,0.0,0.0,0.0,0.0,1e+12,0.0,0.0,0.0,0.0,0.0,0.0,1e+12,0.0,0.0,0.0,0.0,0.0,0.0,1e+12,0.0,0.0,0.0,0.0,0.0,0.0,0.001,1.08437822745e-08,0.0,0.0,0.0,0.0,1.85402397278e-06,0.0,0.0,0.0,0.0,0.0,0.0,0.0,0.0,0.0,0.0,0.0,0.0,0.0,0.0,0.0,0.0,0.0,0.0,0.0,0.0,0.0,0.0,0.0,0.0,0.0,0.0,0.0,0.0,0.0,0.0,0.0,0.0,0.0,0.0,0.0,0.0
272140000000,4948,272140000000,robotros_test/odom,robotros_test/chassis,3.48396494694e-06,-1.29258648499e-10,0.0,0.0,0.0,-3.82026108696e-05,0.99999999927,1e-05,0.0,0.0,0.0,0.0,0.0,0.0,1e-05,0.0,0.0,0.0,0.0,0.0,0.0,1e+12,0.0,0.0,0.0,0.0,0.0,0.0,1e+12,0.0,0.0,0.0,0.0,0.0,0.0,1e+12,0.0,0.0,0.0,0.0,0.0,0.0,0.001,1.08437892433e-08,0.0,0.0,0.0,0.0,1.85402383574e-06,0.0,0.0,0.0,0.0,0.0,0.0,0.0,0.0,0.0,0.0,0.0,0.0,0.0,0.0,0.0,0.0,0.0,0.0,0.0,0.0,0.0,0.0,0.0,0.0,0.0,0.0,0.0,0.0,0.0,0.0,0.0,0.0,0.0,0.0,0.0,0.0
272189000000,4949,272189000000,robotros_test/odom,robotros_test/chassis,3.48464918725e-06,-1.29310934041e-10,0.0,0.0,0.0,-3.82103434548e-05,0.99999999927,1e-05,0.0,0.0,0.0,0.0,0.0,0.0,1e-05,0.0,0.0,0.0,0.0,0.0,0.0,1e+12,0.0,0.0,0.0,0.0,0.0,0.0,1e+12,0.0,0.0,0.0,0.0,0.0,0.0,1e+12,0.0,0.0,0.0,0.0,0.0,0.0,0.001,1.08437963265e-08,0.0,0.0,0.0,0.0,1.85402369896e-06,0.0,0.0,0.0,0.0,0.0,0.0,0.0,0.0,0.0,0.0,0.0,0.0,0.0,0.0,0.0,0.0,0.0,0.0,0.0,0.0,0.0,0.0,0.0,0.0,0.0,0.0,0.0,0.0,0.0,0.0,0.0,0.0,0.0,0.0,0.0,0.0
272235000000,4950,272235000000,robotros_test/odom,robotros_test/chassis,3.48533342765e-06,-1.29363230171e-10,0.0,0.0,0.0,-3.82180760448e-05,0.99999999927,1e-05,0.0,0.0,0.0,0.0,0.0,0.0,1e-05,0.0,0.0,0.0,0.0,0.0,0.0,1e+12,0.0,0.0,0.0,0.0,0.0,0.0,1e+12,0.0,0.0,0.0,0.0,0.0,0.0,1e+12,0.0,0.0,0.0,0.0,0.0,0.0,0.001,1.08438034006e-08,0.0,0.0,0.0,0.0,1.85402356224e-06,0.0,0.0,0.0,0.0,0.0,0.0,0.0,0.0,0.0,0.0,0.0,0.0,0.0,0.0,0.0,0.0,0.0,0.0,0.0,0.0,0.0,0.0,0.0,0.0,0.0,0.0,0.0,0.0,0.0,0.0,0.0,0.0,0.0,0.0,0.0,0.0
272290000000,4951,272290000000,robotros_test/odom,robotros_test/chassis,3.48601766812e-06,-1.29415536889e-10,0.0,0.0,0.0,-3.82258086394e-05,0.999999999269,1e-05,0.0,0.0,0.0,0.0,0.0,0.0,1e-05,0.0,0.0,0.0,0.0,0.0,0.0,1e+12,0.0,0.0,0.0,0.0,0.0,0.0,1e+12,0.0,0.0,0.0,0.0,0.0,0.0,1e+12,0.0,0.0,0.0,0.0,0.0,0.0,0.001,1.08438102837e-08,0.0,0.0,0.0,0.0,1.85402342483e-06,0.0,0.0,0.0,0.0,0.0,0.0,0.0,0.0,0.0,0.0,0.0,0.0,0.0,0.0,0.0,0.0,0.0,0.0,0.0,0.0,0.0,0.0,0.0,0.0,0.0,0.0,0.0,0.0,0.0,0.0,0.0,0.0,0.0,0.0,0.0,0.0
272340000000,4952,272340000000,robotros_test/odom,robotros_test/chassis,3.48670190866e-06,-1.29467854194e-10,0.0,0.0,0.0,-3.82335412388e-05,0.999999999269,1e-05,0.0,0.0,0.0,0.0,0.0,0.0,1e-05,0.0,0.0,0.0,0.0,0.0,0.0,1e+12,0.0,0.0,0.0,0.0,0.0,0.0,1e+12,0.0,0.0,0.0,0.0,0.0,0.0,1e+12,0.0,0.0,0.0,0.0,0.0,0.0,0.001,1.0843817211e-08,0.0,0.0,0.0,0.0,1.85402328743e-06,0.0,0.0,0.0,0.0,0.0,0.0,0.0,0.0,0.0,0.0,0.0,0.0,0.0,0.0,0.0,0.0,0.0,0.0,0.0,0.0,0.0,0.0,0.0,0.0,0.0,0.0,0.0,0.0,0.0,0.0,0.0,0.0,0.0,0.0,0.0,0.0
272390000000,4953,272390000000,robotros_test/odom,robotros_test/chassis,3.48738614928e-06,-1.29520182088e-10,0.0,0.0,0.0,-3.82412738429e-05,0.999999999269,1e-05,0.0,0.0,0.0,0.0,0.0,0.0,1e-05,0.0,0.0,0.0,0.0,0.0,0.0,1e+12,0.0,0.0,0.0,0.0,0.0,0.0,1e+12,0.0,0.0,0.0,0.0,0.0,0.0,1e+12,0.0,0.0,0.0,0.0,0.0,0.0,0.001,1.08438242261e-08,0.0,0.0,0.0,0.0,1.85402315052e-06,0.0,0.0,0.0,0.0,0.0,0.0,0.0,0.0,0.0,0.0,0.0,0.0,0.0,0.0,0.0,0.0,0.0,0.0,0.0,0.0,0.0,0.0,0.0,0.0,0.0,0.0,0.0,0.0,0.0,0.0,0.0,0.0,0.0,0.0,0.0,0.0
272440000000,4954,272440000000,robotros_test/odom,robotros_test/chassis,3.48807038998e-06,-1.29572520569e-10,0.0,0.0,0.0,-3.82490064518e-05,0.999999999269,1e-05,0.0,0.0,0.0,0.0,0.0,0.0,1e-05,0.0,0.0,0.0,0.0,0.0,0.0,1e+12,0.0,0.0,0.0,0.0,0.0,0.0,1e+12,0.0,0.0,0.0,0.0,0.0,0.0,1e+12,0.0,0.0,0.0,0.0,0.0,0.0,0.001,1.08438312651e-08,0.0,0.0,0.0,0.0,1.85402301354e-06,0.0,0.0,0.0,0.0,0.0,0.0,0.0,0.0,0.0,0.0,0.0,0.0,0.0,0.0,0.0,0.0,0.0,0.0,0.0,0.0,0.0,0.0,0.0,0.0,0.0,0.0,0.0,0.0,0.0,0.0,0.0,0.0,0.0,0.0,0.0,0.0
272490000000,4955,272490000000,robotros_test/odom,robotros_test/chassis,3.48875463075e-06,-1.29624869637e-10,0.0,0.0,0.0,-3.82567390654e-05,0.999999999268,1e-05,0.0,0.0,0.0,0.0,0.0,0.0,1e-05,0.0,0.0,0.0,0.0,0.0,0.0,1e+12,0.0,0.0,0.0,0.0,0.0,0.0,1e+12,0.0,0.0,0.0,0.0,0.0,0.0,1e+12,0.0,0.0,0.0,0.0,0.0,0.0,0.001,1.08438382065e-08,0.0,0.0,0.0,0.0,1.85402287626e-06,0.0,0.0,0.0,0.0,0.0,0.0,0.0,0.0,0.0,0.0,0.0,0.0,0.0,0.0,0.0,0.0,0.0,0.0,0.0,0.0,0.0,0.0,0.0,0.0,0.0,0.0,0.0,0.0,0.0,0.0,0.0,0.0,0.0,0.0,0.0,0.0
272540000000,4956,272540000000,robotros_test/odom,robotros_test/chassis,3.4894388716e-06,-1.29677229294e-10,0.0,0.0,0.0,-3.82644716837e-05,0.999999999268,1e-05,0.0,0.0,0.0,0.0,0.0,0.0,1e-05,0.0,0.0,0.0,0.0,0.0,0.0,1e+12,0.0,0.0,0.0,0.0,0.0,0.0,1e+12,0.0,0.0,0.0,0.0,0.0,0.0,1e+12,0.0,0.0,0.0,0.0,0.0,0.0,0.001,1.08438452416e-08,0.0,0.0,0.0,0.0,1.85402273946e-06,0.0,0.0,0.0,0.0,0.0,0.0,0.0,0.0,0.0,0.0,0.0,0.0,0.0,0.0,0.0,0.0,0.0,0.0,0.0,0.0,0.0,0.0,0.0,0.0,0.0,0.0,0.0,0.0,0.0,0.0,0.0,0.0,0.0,0.0,0.0,0.0
272590000000,4957,272590000000,robotros_test/odom,robotros_test/chassis,3.49012311252e-06,-1.29729599538e-10,0.0,0.0,0.0,-3.82722043067e-05,0.999999999268,1e-05,0.0,0.0,0.0,0.0,0.0,0.0,1e-05,0.0,0.0,0.0,0.0,0.0,0.0,1e+12,0.0,0.0,0.0,0.0,0.0,0.0,1e+12,0.0,0.0,0.0,0.0,0.0,0.0,1e+12,0.0,0.0,0.0,0.0,0.0,0.0,0.001,1.08438522923e-08,0.0,0.0,0.0,0.0,1.85402260261e-06,0.0,0.0,0.0,0.0,0.0,0.0,0.0,0.0,0.0,0.0,0.0,0.0,0.0,0.0,0.0,0.0,0.0,0.0,0.0,0.0,0.0,0.0,0.0,0.0,0.0,0.0,0.0,0.0,0.0,0.0,0.0,0.0,0.0,0.0,0.0,0.0
272640000000,4958,272640000000,robotros_test/odom,robotros_test/chassis,3.49080735352e-06,-1.2978198037e-10,0.0,0.0,0.0,-3.82799369345e-05,0.999999999267,1e-05,0.0,0.0,0.0,0.0,0.0,0.0,1e-05,0.0,0.0,0.0,0.0,0.0,0.0,1e+12,0.0,0.0,0.0,0.0,0.0,0.0,1e+12,0.0,0.0,0.0,0.0,0.0,0.0,1e+12,0.0,0.0,0.0,0.0,0.0,0.0,0.001,1.08438591759e-08,0.0,0.0,0.0,0.0,1.85402246519e-06,0.0,0.0,0.0,0.0,0.0,0.0,0.0,0.0,0.0,0.0,0.0,0.0,0.0,0.0,0.0,0.0,0.0,0.0,0.0,0.0,0.0,0.0,0.0,0.0,0.0,0.0,0.0,0.0,0.0,0.0,0.0,0.0,0.0,0.0,0.0,0.0
272690000000,4959,272690000000,robotros_test/odom,robotros_test/chassis,3.4914915946e-06,-1.29834371789e-10,0.0,0.0,0.0,-3.8287669567e-05,0.999999999267,1e-05,0.0,0.0,0.0,0.0,0.0,0.0,1e-05,0.0,0.0,0.0,0.0,0.0,0.0,1e+12,0.0,0.0,0.0,0.0,0.0,0.0,1e+12,0.0,0.0,0.0,0.0,0.0,0.0,1e+12,0.0,0.0,0.0,0.0,0.0,0.0,0.001,1.08438662748e-08,0.0,0.0,0.0,0.0,1.8540223284e-06,0.0,0.0,0.0,0.0,0.0,0.0,0.0,0.0,0.0,0.0,0.0,0.0,0.0,0.0,0.0,0.0,0.0,0.0,0.0,0.0,0.0,0.0,0.0,0.0,0.0,0.0,0.0,0.0,0.0,0.0,0.0,0.0,0.0,0.0,0.0,0.0
272736000000,4960,272736000000,robotros_test/odom,robotros_test/chassis,3.49217583575e-06,-1.29886773797e-10,0.0,0.0,0.0,-3.82954022042e-05,0.999999999267,1e-05,0.0,0.0,0.0,0.0,0.0,0.0,1e-05,0.0,0.0,0.0,0.0,0.0,0.0,1e+12,0.0,0.0,0.0,0.0,0.0,0.0,1e+12,0.0,0.0,0.0,0.0,0.0,0.0,1e+12,0.0,0.0,0.0,0.0,0.0,0.0,0.001,1.08438732985e-08,0.0,0.0,0.0,0.0,1.85402219155e-06,0.0,0.0,0.0,0.0,0.0,0.0,0.0,0.0,0.0,0.0,0.0,0.0,0.0,0.0,0.0,0.0,0.0,0.0,0.0,0.0,0.0,0.0,0.0,0.0,0.0,0.0,0.0,0.0,0.0,0.0,0.0,0.0,0.0,0.0,0.0,0.0
272790000000,4961,272790000000,robotros_test/odom,robotros_test/chassis,3.49286007698e-06,-1.29939186392e-10,0.0,0.0,0.0,-3.83031348462e-05,0.999999999266,1e-05,0.0,0.0,0.0,0.0,0.0,0.0,1e-05,0.0,0.0,0.0,0.0,0.0,0.0,1e+12,0.0,0.0,0.0,0.0,0.0,0.0,1e+12,0.0,0.0,0.0,0.0,0.0,0.0,1e+12,0.0,0.0,0.0,0.0,0.0,0.0,0.001,1.08438802351e-08,0.0,0.0,0.0,0.0,1.85402205419e-06,0.0,0.0,0.0,0.0,0.0,0.0,0.0,0.0,0.0,0.0,0.0,0.0,0.0,0.0,0.0,0.0,0.0,0.0,0.0,0.0,0.0,0.0,0.0,0.0,0.0,0.0,0.0,0.0,0.0,0.0,0.0,0.0,0.0,0.0,0.0,0.0
272840000000,4962,272840000000,robotros_test/odom,robotros_test/chassis,3.49354431828e-06,-1.29991609575e-10,0.0,0.0,0.0,-3.83108674929e-05,0.999999999266,1e-05,0.0,0.0,0.0,0.0,0.0,0.0,1e-05,0.0,0.0,0.0,0.0,0.0,0.0,1e+12,0.0,0.0,0.0,0.0,0.0,0.0,1e+12,0.0,0.0,0.0,0.0,0.0,0.0,1e+12,0.0,0.0,0.0,0.0,0.0,0.0,0.001,1.08438870682e-08,0.0,0.0,0.0,0.0,1.85402191661e-06,0.0,0.0,0.0,0.0,0.0,0.0,0.0,0.0,0.0,0.0,0.0,0.0,0.0,0.0,0.0,0.0,0.0,0.0,0.0,0.0,0.0,0.0,0.0,0.0,0.0,0.0,0.0,0.0,0.0,0.0,0.0,0.0,0.0,0.0,0.0,0.0
272890000000,4963,272890000000,robotros_test/odom,robotros_test/chassis,3.49422855966e-06,-1.30044043346e-10,0.0,0.0,0.0,-3.83186001443e-05,0.999999999266,1e-05,0.0,0.0,0.0,0.0,0.0,0.0,1e-05,0.0,0.0,0.0,0.0,0.0,0.0,1e+12,0.0,0.0,0.0,0.0,0.0,0.0,1e+12,0.0,0.0,0.0,0.0,0.0,0.0,1e+12,0.0,0.0,0.0,0.0,0.0,0.0,0.001,1.08438941218e-08,0.0,0.0,0.0,0.0,1.85402177976e-06,0.0,0.0,0.0,0.0,0.0,0.0,0.0,0.0,0.0,0.0,0.0,0.0,0.0,0.0,0.0,0.0,0.0,0.0,0.0,0.0,0.0,0.0,0.0,0.0,0.0,0.0,0.0,0.0,0.0,0.0,0.0,0.0,0.0,0.0,0.0,0.0
272940000000,4964,272940000000,robotros_test/odom,robotros_test/chassis,3.49491280111e-06,-1.30096487704e-10,0.0,0.0,0.0,-3.83263328005e-05,0.999999999266,1e-05,0.0,0.0,0.0,0.0,0.0,0.0,1e-05,0.0,0.0,0.0,0.0,0.0,0.0,1e+12,0.0,0.0,0.0,0.0,0.0,0.0,1e+12,0.0,0.0,0.0,0.0,0.0,0.0,1e+12,0.0,0.0,0.0,0.0,0.0,0.0,0.001,1.08439011667e-08,0.0,0.0,0.0,0.0,1.85402164283e-06,0.0,0.0,0.0,0.0,0.0,0.0,0.0,0.0,0.0,0.0,0.0,0.0,0.0,0.0,0.0,0.0,0.0,0.0,0.0,0.0,0.0,0.0,0.0,0.0,0.0,0.0,0.0,0.0,0.0,0.0,0.0,0.0,0.0,0.0,0.0,0.0
272990000000,4965,272990000000,robotros_test/odom,robotros_test/chassis,3.49559704264e-06,-1.30148942651e-10,0.0,0.0,0.0,-3.83340654614e-05,0.999999999265,1e-05,0.0,0.0,0.0,0.0,0.0,0.0,1e-05,0.0,0.0,0.0,0.0,0.0,0.0,1e+12,0.0,0.0,0.0,0.0,0.0,0.0,1e+12,0.0,0.0,0.0,0.0,0.0,0.0,1e+12,0.0,0.0,0.0,0.0,0.0,0.0,0.001,1.08439080549e-08,0.0,0.0,0.0,0.0,1.85402150545e-06,0.0,0.0,0.0,0.0,0.0,0.0,0.0,0.0,0.0,0.0,0.0,0.0,0.0,0.0,0.0,0.0,0.0,0.0,0.0,0.0,0.0,0.0,0.0,0.0,0.0,0.0,0.0,0.0,0.0,0.0,0.0,0.0,0.0,0.0,0.0,0.0
273040000000,4966,273040000000,robotros_test/odom,robotros_test/chassis,3.49628128424e-06,-1.30201408185e-10,0.0,0.0,0.0,-3.8341798127e-05,0.999999999265,1e-05,0.0,0.0,0.0,0.0,0.0,0.0,1e-05,0.0,0.0,0.0,0.0,0.0,0.0,1e+12,0.0,0.0,0.0,0.0,0.0,0.0,1e+12,0.0,0.0,0.0,0.0,0.0,0.0,1e+12,0.0,0.0,0.0,0.0,0.0,0.0,0.001,1.08439151282e-08,0.0,0.0,0.0,0.0,1.85402136876e-06,0.0,0.0,0.0,0.0,0.0,0.0,0.0,0.0,0.0,0.0,0.0,0.0,0.0,0.0,0.0,0.0,0.0,0.0,0.0,0.0,0.0,0.0,0.0,0.0,0.0,0.0,0.0,0.0,0.0,0.0,0.0,0.0,0.0,0.0,0.0,0.0
273090000000,4967,273090000000,robotros_test/odom,robotros_test/chassis,3.49696552592e-06,-1.30253884307e-10,0.0,0.0,0.0,-3.83495307973e-05,0.999999999265,1e-05,0.0,0.0,0.0,0.0,0.0,0.0,1e-05,0.0,0.0,0.0,0.0,0.0,0.0,1e+12,0.0,0.0,0.0,0.0,0.0,0.0,1e+12,0.0,0.0,0.0,0.0,0.0,0.0,1e+12,0.0,0.0,0.0,0.0,0.0,0.0,0.001,1.08439220332e-08,0.0,0.0,0.0,0.0,1.85402123135e-06,0.0,0.0,0.0,0.0,0.0,0.0,0.0,0.0,0.0,0.0,0.0,0.0,0.0,0.0,0.0,0.0,0.0,0.0,0.0,0.0,0.0,0.0,0.0,0.0,0.0,0.0,0.0,0.0,0.0,0.0,0.0,0.0,0.0,0.0,0.0,0.0
273140000000,4968,273140000000,robotros_test/odom,robotros_test/chassis,3.49764976768e-06,-1.30306371017e-10,0.0,0.0,0.0,-3.83572634724e-05,0.999999999264,1e-05,0.0,0.0,0.0,0.0,0.0,0.0,1e-05,0.0,0.0,0.0,0.0,0.0,0.0,1e+12,0.0,0.0,0.0,0.0,0.0,0.0,1e+12,0.0,0.0,0.0,0.0,0.0,0.0,1e+12,0.0,0.0,0.0,0.0,0.0,0.0,0.001,1.08439292958e-08,0.0,0.0,0.0,0.0,1.85402109519e-06,0.0,0.0,0.0,0.0,0.0,0.0,0.0,0.0,0.0,0.0,0.0,0.0,0.0,0.0,0.0,0.0,0.0,0.0,0.0,0.0,0.0,0.0,0.0,0.0,0.0,0.0,0.0,0.0,0.0,0.0,0.0,0.0,0.0,0.0,0.0,0.0
273190000000,4969,273190000000,robotros_test/odom,robotros_test/chassis,3.49833400951e-06,-1.30358868315e-10,0.0,0.0,0.0,-3.83649961522e-05,0.999999999264,1e-05,0.0,0.0,0.0,0.0,0.0,0.0,1e-05,0.0,0.0,0.0,0.0,0.0,0.0,1e+12,0.0,0.0,0.0,0.0,0.0,0.0,1e+12,0.0,0.0,0.0,0.0,0.0,0.0,1e+12,0.0,0.0,0.0,0.0,0.0,0.0,0.001,1.08439361351e-08,0.0,0.0,0.0,0.0,1.85402095756e-06,0.0,0.0,0.0,0.0,0.0,0.0,0.0,0.0,0.0,0.0,0.0,0.0,0.0,0.0,0.0,0.0,0.0,0.0,0.0,0.0,0.0,0.0,0.0,0.0,0.0,0.0,0.0,0.0,0.0,0.0,0.0,0.0,0.0,0.0,0.0,0.0
273240000000,4970,273240000000,robotros_test/odom,robotros_test/chassis,3.49901825142e-06,-1.304113762e-10,0.0,0.0,0.0,-3.83727288368e-05,0.999999999264,1e-05,0.0,0.0,0.0,0.0,0.0,0.0,1e-05,0.0,0.0,0.0,0.0,0.0,0.0,1e+12,0.0,0.0,0.0,0.0,0.0,0.0,1e+12,0.0,0.0,0.0,0.0,0.0,0.0,1e+12,0.0,0.0,0.0,0.0,0.0,0.0,0.001,1.08439429859e-08,0.0,0.0,0.0,0.0,1.85402081999e-06,0.0,0.0,0.0,0.0,0.0,0.0,0.0,0.0,0.0,0.0,0.0,0.0,0.0,0.0,0.0,0.0,0.0,0.0,0.0,0.0,0.0,0.0,0.0,0.0,0.0,0.0,0.0,0.0,0.0,0.0,0.0,0.0,0.0,0.0,0.0,0.0
273290000000,4971,273290000000,robotros_test/odom,robotros_test/chassis,3.49970249341e-06,-1.30463894674e-10,0.0,0.0,0.0,-3.8380461526e-05,0.999999999263,1e-05,0.0,0.0,0.0,0.0,0.0,0.0,1e-05,0.0,0.0,0.0,0.0,0.0,0.0,1e+12,0.0,0.0,0.0,0.0,0.0,0.0,1e+12,0.0,0.0,0.0,0.0,0.0,0.0,1e+12,0.0,0.0,0.0,0.0,0.0,0.0,0.001,1.08439499488e-08,0.0,0.0,0.0,0.0,1.85402068289e-06,0.0,0.0,0.0,0.0,0.0,0.0,0.0,0.0,0.0,0.0,0.0,0.0,0.0,0.0,0.0,0.0,0.0,0.0,0.0,0.0,0.0,0.0,0.0,0.0,0.0,0.0,0.0,0.0,0.0,0.0,0.0,0.0,0.0,0.0,0.0,0.0
273338000000,4972,273338000000,robotros_test/odom,robotros_test/chassis,3.50038673547e-06,-1.30516423735e-10,0.0,0.0,0.0,-3.838819422e-05,0.999999999263,1e-05,0.0,0.0,0.0,0.0,0.0,0.0,1e-05,0.0,0.0,0.0,0.0,0.0,0.0,1e+12,0.0,0.0,0.0,0.0,0.0,0.0,1e+12,0.0,0.0,0.0,0.0,0.0,0.0,1e+12,0.0,0.0,0.0,0.0,0.0,0.0,0.001,1.0843957021e-08,0.0,0.0,0.0,0.0,1.85402054602e-06,0.0,0.0,0.0,0.0,0.0,0.0,0.0,0.0,0.0,0.0,0.0,0.0,0.0,0.0,0.0,0.0,0.0,0.0,0.0,0.0,0.0,0.0,0.0,0.0,0.0,0.0,0.0,0.0,0.0,0.0,0.0,0.0,0.0,0.0,0.0,0.0
273390000000,4973,273390000000,robotros_test/odom,robotros_test/chassis,3.5010709776e-06,-1.30568963385e-10,0.0,0.0,0.0,-3.83959269188e-05,0.999999999263,1e-05,0.0,0.0,0.0,0.0,0.0,0.0,1e-05,0.0,0.0,0.0,0.0,0.0,0.0,1e+12,0.0,0.0,0.0,0.0,0.0,0.0,1e+12,0.0,0.0,0.0,0.0,0.0,0.0,1e+12,0.0,0.0,0.0,0.0,0.0,0.0,0.001,1.08439640747e-08,0.0,0.0,0.0,0.0,1.85402040928e-06,0.0,0.0,0.0,0.0,0.0,0.0,0.0,0.0,0.0,0.0,0.0,0.0,0.0,0.0,0.0,0.0,0.0,0.0,0.0,0.0,0.0,0.0,0.0,0.0,0.0,0.0,0.0,0.0,0.0,0.0,0.0,0.0,0.0,0.0,0.0,0.0
273440000000,4974,273440000000,robotros_test/odom,robotros_test/chassis,3.50175521981e-06,-1.30621513622e-10,0.0,0.0,0.0,-3.84036596222e-05,0.999999999263,1e-05,0.0,0.0,0.0,0.0,0.0,0.0,1e-05,0.0,0.0,0.0,0.0,0.0,0.0,1e+12,0.0,0.0,0.0,0.0,0.0,0.0,1e+12,0.0,0.0,0.0,0.0,0.0,0.0,1e+12,0.0,0.0,0.0,0.0,0.0,0.0,0.001,1.08439711122e-08,0.0,0.0,0.0,0.0,1.85402027236e-06,0.0,0.0,0.0,0.0,0.0,0.0,0.0,0.0,0.0,0.0,0.0,0.0,0.0,0.0,0.0,0.0,0.0,0.0,0.0,0.0,0.0,0.0,0.0,0.0,0.0,0.0,0.0,0.0,0.0,0.0,0.0,0.0,0.0,0.0,0.0,0.0
273490000000,4975,273490000000,robotros_test/odom,robotros_test/chassis,3.5024394621e-06,-1.30674074447e-10,0.0,0.0,0.0,-3.84113923304e-05,0.999999999262,1e-05,0.0,0.0,0.0,0.0,0.0,0.0,1e-05,0.0,0.0,0.0,0.0,0.0,0.0,1e+12,0.0,0.0,0.0,0.0,0.0,0.0,1e+12,0.0,0.0,0.0,0.0,0.0,0.0,1e+12,0.0,0.0,0.0,0.0,0.0,0.0,0.001,1.08439779752e-08,0.0,0.0,0.0,0.0,1.85402013483e-06,0.0,0.0,0.0,0.0,0.0,0.0,0.0,0.0,0.0,0.0,0.0,0.0,0.0,0.0,0.0,0.0,0.0,0.0,0.0,0.0,0.0,0.0,0.0,0.0,0.0,0.0,0.0,0.0,0.0,0.0,0.0,0.0,0.0,0.0,0.0,0.0
273539000000,4976,273539000000,robotros_test/odom,robotros_test/chassis,3.50312370446e-06,-1.3072664586e-10,0.0,0.0,0.0,-3.84191250433e-05,0.999999999262,1e-05,0.0,0.0,0.0,0.0,0.0,0.0,1e-05,0.0,0.0,0.0,0.0,0.0,0.0,1e+12,0.0,0.0,0.0,0.0,0.0,0.0,1e+12,0.0,0.0,0.0,0.0,0.0,0.0,1e+12,0.0,0.0,0.0,0.0,0.0,0.0,0.001,1.08439848873e-08,0.0,0.0,0.0,0.0,1.8540199975e-06,0.0,0.0,0.0,0.0,0.0,0.0,0.0,0.0,0.0,0.0,0.0,0.0,0.0,0.0,0.0,0.0,0.0,0.0,0.0,0.0,0.0,0.0,0.0,0.0,0.0,0.0,0.0,0.0,0.0,0.0,0.0,0.0,0.0,0.0,0.0,0.0
273590000000,4977,273590000000,robotros_test/odom,robotros_test/chassis,0.000600339233373,-3.82787059313e-08,0.0,0.0,0.0,-2.46642461191e-05,0.999999999696,1e-05,0.0,0.0,0.0,0.0,0.0,0.0,1e-05,0.0,0.0,0.0,0.0,0.0,0.0,1e+12,0.0,0.0,0.0,0.0,0.0,0.0,1e+12,0.0,0.0,0.0,0.0,0.0,0.0,1e+12,0.0,0.0,0.0,0.0,0.0,0.0,0.001,0.0233468214651,0.0,0.0,0.0,0.0,0.00104733862877,0.0,0.0,0.0,0.0,0.0,0.0,0.0,0.0,0.0,0.0,0.0,0.0,0.0,0.0,0.0,0.0,0.0,0.0,0.0,0.0,0.0,0.0,0.0,0.0,0.0,0.0,0.0,0.0,0.0,0.0,0.0,0.0,0.0,0.0,0.0,0.0
273640000000,4978,273640000000,robotros_test/odom,robotros_test/chassis,0.00236510905807,-4.10371735726e-08,0.0,0.0,0.0,2.35689168708e-05,0.999999999722,1e-05,0.0,0.0,0.0,0.0,0.0,0.0,1e-05,0.0,0.0,0.0,0.0,0.0,0.0,1e+12,0.0,0.0,0.0,0.0,0.0,0.0,1e+12,0.0,0.0,0.0,0.0,0.0,0.0,1e+12,0.0,0.0,0.0,0.0,0.0,0.0,0.001,0.0467130552827,0.0,0.0,0.0,0.0,0.0024563609774,0.0,0.0,0.0,0.0,0.0,0.0,0.0,0.0,0.0,0.0,0.0,0.0,0.0,0.0,0.0,0.0,0.0,0.0,0.0,0.0,0.0,0.0,0.0,0.0,0.0,0.0,0.0,0.0,0.0,0.0,0.0,0.0,0.0,0.0,0.0,0.0
273690000000,4979,273690000000,robotros_test/odom,robotros_test/chassis,0.00529818875711,3.41277980182e-07,0.0,0.0,0.0,0.000107026702742,0.999999994273,1e-05,0.0,0.0,0.0,0.0,0.0,0.0,1e-05,0.0,0.0,0.0,0.0,0.0,0.0,1e+12,0.0,0.0,0.0,0.0,0.0,0.0,1e+12,0.0,0.0,0.0,0.0,0.0,0.0,1e+12,0.0,0.0,0.0,0.0,0.0,0.0,0.001,0.0700792993337,0.0,0.0,0.0,0.0,0.0038654123843,0.0,0.0,0.0,0.0,0.0,0.0,0.0,0.0,0.0,0.0,0.0,0.0,0.0,0.0,0.0,0.0,0.0,0.0,0.0,0.0,0.0,0.0,0.0,0.0,0.0,0.0,0.0,0.0,0.0,0.0,0.0,0.0,0.0,0.0,0.0,0.0
273740000000,4980,273740000000,robotros_test/odom,robotros_test/chassis,0.00939957753147,1.70533270713e-06,0.0,0.0,0.0,0.000225713156288,0.999999974527,1e-05,0.0,0.0,0.0,0.0,0.0,0.0,1e-05,0.0,0.0,0.0,0.0,0.0,0.0,1e+12,0.0,0.0,0.0,0.0,0.0,0.0,1e+12,0.0,0.0,0.0,0.0,0.0,0.0,1e+12,0.0,0.0,0.0,0.0,0.0,0.0,0.001,0.0934455493718,0.0,0.0,0.0,0.0,0.00527466292424,0.0,0.0,0.0,0.0,0.0,0.0,0.0,0.0,0.0,0.0,0.0,0.0,0.0,0.0,0.0,0.0,0.0,0.0,0.0,0.0,0.0,0.0,0.0,0.0,0.0,0.0,0.0,0.0,0.0,0.0,0.0,0.0,0.0,0.0,0.0,0.0
273790000000,4981,273790000000,robotros_test/odom,robotros_test/chassis,0.0146692740866,4.89477735423e-06,0.0,0.0,0.0,0.000379634011683,0.999999927939,1e-05,0.0,0.0,0.0,0.0,0.0,0.0,1e-05,0.0,0.0,0.0,0.0,0.0,0.0,1e+12,0.0,0.0,0.0,0.0,0.0,0.0,1e+12,0.0,0.0,0.0,0.0,0.0,0.0,1e+12,0.0,0.0,0.0,0.0,0.0,0.0,0.001,0.116811803728,0.0,0.0,0.0,0.0,0.00668417461748,0.0,0.0,0.0,0.0,0.0,0.0,0.0,0.0,0.0,0.0,0.0,0.0,0.0,0.0,0.0,0.0,0.0,0.0,0.0,0.0,0.0,0.0,0.0,0.0,0.0,0.0,0.0,0.0,0.0,0.0,0.0,0.0,0.0,0.0,0.0,0.0
273839000000,4982,273839000000,robotros_test/odom,robotros_test/chassis,0.0211072764512,1.10003128721e-05,0.0,0.0,0.0,0.000568796669311,0.999999838235,1e-05,0.0,0.0,0.0,0.0,0.0,0.0,1e-05,0.0,0.0,0.0,0.0,0.0,0.0,1e+12,0.0,0.0,0.0,0.0,0.0,0.0,1e+12,0.0,0.0,0.0,0.0,0.0,0.0,1e+12,0.0,0.0,0.0,0.0,0.0,0.0,0.001,0.140178063454,0.0,0.0,0.0,0.0,0.00809401892656,0.0,0.0,0.0,0.0,0.0,0.0,0.0,0.0,0.0,0.0,0.0,0.0,0.0,0.0,0.0,0.0,0.0,0.0,0.0,0.0,0.0,0.0,0.0,0.0,0.0,0.0,0.0,0.0,0.0,0.0,0.0,0.0,0.0,0.0,0.0,0.0
273890000000,4983,273890000000,robotros_test/odom,robotros_test/chassis,0.0287137021427,2.13608539168e-05,0.0,0.0,0.0,0.000793644847719,0.999999685064,1e-05,0.0,0.0,0.0,0.0,0.0,0.0,1e-05,0.0,0.0,0.0,0.0,0.0,0.0,1e+12,0.0,0.0,0.0,0.0,0.0,0.0,1e+12,0.0,0.0,0.0,0.0,0.0,0.0,1e+12,0.0,0.0,0.0,0.0,0.0,0.0,0.001,0.163577339291,0.0,0.0,0.0,0.0,0.00957603464748,0.0,0.0,0.0,0.0,0.0,0.0,0.0,0.0,0.0,0.0,0.0,0.0,0.0,0.0,0.0,0.0,0.0,0.0,0.0,0.0,0.0,0.0,0.0,0.0,0.0,0.0,0.0,0.0,0.0,0.0,0.0,0.0,0.0,0.0,0.0,0.0
273940000000,4984,273940000000,robotros_test/odom,robotros_test/chassis,0.0374885598429,3.75841246534e-05,0.0,0.0,0.0,0.0010551856965,0.999999443291,1e-05,0.0,0.0,0.0,0.0,0.0,0.0,1e-05,0.0,0.0,0.0,0.0,0.0,0.0,1e+12,0.0,0.0,0.0,0.0,0.0,0.0,1e+12,0.0,0.0,0.0,0.0,0.0,0.0,1e+12,0.0,0.0,0.0,0.0,0.0,0.0,0.001,0.186944301548,0.0,0.0,0.0,0.0,0.0109899603786,0.0,0.0,0.0,0.0,0.0,0.0,0.0,0.0,0.0,0.0,0.0,0.0,0.0,0.0,0.0,0.0,0.0,0.0,0.0,0.0,0.0,0.0,0.0,0.0,0.0,0.0,0.0,0.0,0.0,0.0,0.0,0.0,0.0,0.0,0.0,0.0
273990000000,4985,273990000000,robotros_test/odom,robotros_test/chassis,0.0474317299842,6.15195467236e-05,0.0,0.0,0.0,0.00135202030294,0.99999908602,1e-05,0.0,0.0,0.0,0.0,0.0,0.0,1e-05,0.0,0.0,0.0,0.0,0.0,0.0,1e+12,0.0,0.0,0.0,0.0,0.0,0.0,1e+12,0.0,0.0,0.0,0.0,0.0,0.0,1e+12,0.0,0.0,0.0,0.0,0.0,0.0,0.001,0.210311409857,0.0,0.0,0.0,0.0,0.0124019894179,0.0,0.0,0.0,0.0,0.0,0.0,0.0,0.0,0.0,0.0,0.0,0.0,0.0,0.0,0.0,0.0,0.0,0.0,0.0,0.0,0.0,0.0,0.0,0.0,0.0,0.0,0.0,0.0,0.0,0.0,0.0,0.0,0.0,0.0,0.0,0.0
274040000000,4986,274040000000,robotros_test/odom,robotros_test/chassis,0.0585432036834,9.52563158543e-05,0.0,0.0,0.0,0.00168416308148,0.999998581796,1e-05,0.0,0.0,0.0,0.0,0.0,0.0,1e-05,0.0,0.0,0.0,0.0,0.0,0.0,1e+12,0.0,0.0,0.0,0.0,0.0,0.0,1e+12,0.0,0.0,0.0,0.0,0.0,0.0,1e+12,0.0,0.0,0.0,0.0,0.0,0.0,0.001,0.23367859701,0.0,0.0,0.0,0.0,0.013814616459,0.0,0.0,0.0,0.0,0.0,0.0,0.0,0.0,0.0,0.0,0.0,0.0,0.0,0.0,0.0,0.0,0.0,0.0,0.0,0.0,0.0,0.0,0.0,0.0,0.0,0.0,0.0,0.0,0.0,0.0,0.0,0.0,0.0,0.0,0.0,0.0
274090000000,4987,274090000000,robotros_test/odom,robotros_test/chassis,0.0708229681843,0.000141131449873,0.0,0.0,0.0,0.00205162895259,0.999997895407,1e-05,0.0,0.0,0.0,0.0,0.0,0.0,1e-05,0.0,0.0,0.0,0.0,0.0,0.0,1e+12,0.0,0.0,0.0,0.0,0.0,0.0,1e+12,0.0,0.0,0.0,0.0,0.0,0.0,1e+12,0.0,0.0,0.0,0.0,0.0,0.0,0.001,0.257045853257,0.0,0.0,0.0,0.0,0.0152278387757,0.0,0.0,0.0,0.0,0.0,0.0,0.0,0.0,0.0,0.0,0.0,0.0,0.0,0.0,0.0,0.0,0.0,0.0,0.0,0.0,0.0,0.0,0.0,0.0,0.0,0.0,0.0,0.0,0.0,0.0,0.0,0.0,0.0,0.0,0.0,0.0
274140000000,4988,274140000000,robotros_test/odom,robotros_test/chassis,0.0842710060698,0.000201729906698,0.0,0.0,0.0,0.00245443221125,0.999996987877,1e-05,0.0,0.0,0.0,0.0,0.0,0.0,1e-05,0.0,0.0,0.0,0.0,0.0,0.0,1e+12,0.0,0.0,0.0,0.0,0.0,0.0,1e+12,0.0,0.0,0.0,0.0,0.0,0.0,1e+12,0.0,0.0,0.0,0.0,0.0,0.0,0.001,0.280413163423,0.0,0.0,0.0,0.0,0.0166416104773,0.0,0.0,0.0,0.0,0.0,0.0,0.0,0.0,0.0,0.0,0.0,0.0,0.0,0.0,0.0,0.0,0.0,0.0,0.0,0.0,0.0,0.0,0.0,0.0,0.0,0.0,0.0,0.0,0.0,0.0,0.0,0.0,0.0,0.0,0.0,0.0
274190000000,4989,274190000000,robotros_test/odom,robotros_test/chassis,0.0988879113371,0.00027988871567,0.0,0.0,0.0,0.00289450391526,0.999995810915,1e-05,0.0,0.0,0.0,0.0,0.0,0.0,1e-05,0.0,0.0,0.0,0.0,0.0,0.0,1e+12,0.0,0.0,0.0,0.0,0.0,0.0,1e+12,0.0,0.0,0.0,0.0,0.0,0.0,1e+12,0.0,0.0,0.0,0.0,0.0,0.0,0.001,0.303579573999,0.0,0.0,0.0,0.0,0.0190209536616,0.0,0.0,0.0,0.0,0.0,0.0,0.0,0.0,0.0,0.0,0.0,0.0,0.0,0.0,0.0,0.0,0.0,0.0,0.0,0.0,0.0,0.0,0.0,0.0,0.0,0.0,0.0,0.0,0.0,0.0,0.0,0.0,0.0,0.0,0.0,0.0
274239000000,4990,274239000000,robotros_test/odom,robotros_test/chassis,0.114675109779,0.000378955065709,0.0,0.0,0.0,0.00336883753788,0.999994325451,1e-05,0.0,0.0,0.0,0.0,0.0,0.0,1e-05,0.0,0.0,0.0,0.0,0.0,0.0,1e+12,0.0,0.0,0.0,0.0,0.0,0.0,1e+12,0.0,0.0,0.0,0.0,0.0,0.0,1e+12,0.0,0.0,0.0,0.0,0.0,0.0,0.001,0.327105930369,0.0,0.0,0.0,0.0,0.0179624169659,0.0,0.0,0.0,0.0,0.0,0.0,0.0,0.0,0.0,0.0,0.0,0.0,0.0,0.0,0.0,0.0,0.0,0.0,0.0,0.0,0.0,0.0,0.0,0.0,0.0,0.0,0.0,0.0,0.0,0.0,0.0,0.0,0.0,0.0,0.0,0.0
274290000000,4991,274290000000,robotros_test/odom,robotros_test/chassis,0.131625441286,0.000500612748785,0.0,0.0,0.0,0.00379600286913,0.999992795155,1e-05,0.0,0.0,0.0,0.0,0.0,0.0,1e-05,0.0,0.0,0.0,0.0,0.0,0.0,1e+12,0.0,0.0,0.0,0.0,0.0,0.0,1e+12,0.0,0.0,0.0,0.0,0.0,0.0,1e+12,0.0,0.0,0.0,0.0,0.0,0.0,0.001,0.350467217401,0.0,0.0,0.0,0.0,0.0161538014094,0.0,0.0,0.0,0.0,0.0,0.0,0.0,0.0,0.0,0.0,0.0,0.0,0.0,0.0,0.0,0.0,0.0,0.0,0.0,0.0,0.0,0.0,0.0,0.0,0.0,0.0,0.0,0.0,0.0,0.0,0.0,0.0,0.0,0.0,0.0,0.0
274340000000,4992,274340000000,robotros_test/odom,robotros_test/chassis,0.149743923874,0.000645421823907,0.0,0.0,0.0,0.0041860232623,0.999991238566,1e-05,0.0,0.0,0.0,0.0,0.0,0.0,1e-05,0.0,0.0,0.0,0.0,0.0,0.0,1e+12,0.0,0.0,0.0,0.0,0.0,0.0,1e+12,0.0,0.0,0.0,0.0,0.0,0.0,1e+12,0.0,0.0,0.0,0.0,0.0,0.0,0.001,0.373834286838,0.0,0.0,0.0,0.0,0.0147491648387,0.0,0.0,0.0,0.0,0.0,0.0,0.0,0.0,0.0,0.0,0.0,0.0,0.0,0.0,0.0,0.0,0.0,0.0,0.0,0.0,0.0,0.0,0.0,0.0,0.0,0.0,0.0,0.0,0.0,0.0,0.0,0.0,0.0,0.0,0.0,0.0
274390000000,4993,274390000000,robotros_test/odom,robotros_test/chassis,0.169030546025,0.000813923461334,0.0,0.0,0.0,0.00454092284513,0.999989689957,1e-05,0.0,0.0,0.0,0.0,0.0,0.0,1e-05,0.0,0.0,0.0,0.0,0.0,0.0,1e+12,0.0,0.0,0.0,0.0,0.0,0.0,1e+12,0.0,0.0,0.0,0.0,0.0,0.0,1e+12,0.0,0.0,0.0,0.0,0.0,0.0,0.001,0.397201222596,0.0,0.0,0.0,0.0,0.0133443106578,0.0,0.0,0.0,0.0,0.0,0.0,0.0,0.0,0.0,0.0,0.0,0.0,0.0,0.0,0.0,0.0,0.0,0.0,0.0,0.0,0.0,0.0,0.0,0.0,0.0,0.0,0.0,0.0,0.0,0.0,0.0,0.0,0.0,0.0,0.0,0.0
274440000000,4994,274440000000,robotros_test/odom,robotros_test/chassis,0.189485295081,0.00100642121368,0.0,0.0,0.0,0.00486069328511,0.999988186761,1e-05,0.0,0.0,0.0,0.0,0.0,0.0,1e-05,0.0,0.0,0.0,0.0,0.0,0.0,1e+12,0.0,0.0,0.0,0.0,0.0,0.0,1e+12,0.0,0.0,0.0,0.0,0.0,0.0,1e+12,0.0,0.0,0.0,0.0,0.0,0.0,0.001,0.420567983606,0.0,0.0,0.0,0.0,0.0119386946572,0.0,0.0,0.0,0.0,0.0,0.0,0.0,0.0,0.0,0.0,0.0,0.0,0.0,0.0,0.0,0.0,0.0,0.0,0.0,0.0,0.0,0.0,0.0,0.0,0.0,0.0,0.0,0.0,0.0,0.0,0.0,0.0,0.0,0.0,0.0,0.0
274490000000,4995,274490000000,robotros_test/odom,robotros_test/chassis,0.211108163825,0.00122297159839,0.0,0.0,0.0,0.00514530195597,0.999986762846,1e-05,0.0,0.0,0.0,0.0,0.0,0.0,1e-05,0.0,0.0,0.0,0.0,0.0,0.0,1e+12,0.0,0.0,0.0,0.0,0.0,0.0,1e+12,0.0,0.0,0.0,0.0,0.0,0.0,1e+12,0.0,0.0,0.0,0.0,0.0,0.0,0.001,0.443934530243,0.0,0.0,0.0,0.0,0.010531227422,0.0,0.0,0.0,0.0,0.0,0.0,0.0,0.0,0.0,0.0,0.0,0.0,0.0,0.0,0.0,0.0,0.0,0.0,0.0,0.0,0.0,0.0,0.0,0.0,0.0,0.0,0.0,0.0,0.0,0.0,0.0,0.0,0.0,0.0,0.0,0.0
274540000000,4996,274540000000,robotros_test/odom,robotros_test/chassis,0.233899150912,0.00146338269095,0.0,0.0,0.0,0.00539468765287,0.999985448567,1e-05,0.0,0.0,0.0,0.0,0.0,0.0,1e-05,0.0,0.0,0.0,0.0,0.0,0.0,1e+12,0.0,0.0,0.0,0.0,0.0,0.0,1e+12,0.0,0.0,0.0,0.0,0.0,0.0,1e+12,0.0,0.0,0.0,0.0,0.0,0.0,0.001,0.467300821808,0.0,0.0,0.0,0.0,0.00912073136276,0.0,0.0,0.0,0.0,0.0,0.0,0.0,0.0,0.0,0.0,0.0,0.0,0.0,0.0,0.0,0.0,0.0,0.0,0.0,0.0,0.0,0.0,0.0,0.0,0.0,0.0,0.0,0.0,0.0,0.0,0.0,0.0,0.0,0.0,0.0,0.0
274590000000,4997,274590000000,robotros_test/odom,robotros_test/chassis,0.257858260868,0.00172721229403,0.0,0.0,0.0,0.00560875996543,0.999984270782,1e-05,0.0,0.0,0.0,0.0,0.0,0.0,1e-05,0.0,0.0,0.0,0.0,0.0,0.0,1e+12,0.0,0.0,0.0,0.0,0.0,0.0,1e+12,0.0,0.0,0.0,0.0,0.0,0.0,1e+12,0.0,0.0,0.0,0.0,0.0,0.0,0.001,0.490666816846,0.0,0.0,0.0,0.0,0.00770606977598,0.0,0.0,0.0,0.0,0.0,0.0,0.0,0.0,0.0,0.0,0.0,0.0,0.0,0.0,0.0,0.0,0.0,0.0,0.0,0.0,0.0,0.0,0.0,0.0,0.0,0.0,0.0,0.0,0.0,0.0,0.0,0.0,0.0,0.0,0.0,0.0
274640000000,4998,274640000000,robotros_test/odom,robotros_test/chassis,0.282985503564,0.00201376581676,0.0,0.0,0.0,0.00578740233381,0.999983252847,1e-05,0.0,0.0,0.0,0.0,0.0,0.0,1e-05,0.0,0.0,0.0,0.0,0.0,0.0,1e+12,0.0,0.0,0.0,0.0,0.0,0.0,1e+12,0.0,0.0,0.0,0.0,0.0,0.0,1e+12,0.0,0.0,0.0,0.0,0.0,0.0,0.001,0.514032475495,0.0,0.0,0.0,0.0,0.0062863091879,0.0,0.0,0.0,0.0,0.0,0.0,0.0,0.0,0.0,0.0,0.0,0.0,0.0,0.0,0.0,0.0,0.0,0.0,0.0,0.0,0.0,0.0,0.0,0.0,0.0,0.0,0.0,0.0,0.0,0.0,0.0,0.0,0.0,0.0,0.0,0.0
274690000000,4999,274690000000,robotros_test/odom,robotros_test/chassis,0.309280893274,0.00232209409169,0.0,0.0,0.0,0.00593047938199,0.999982414553,1e-05,0.0,0.0,0.0,0.0,0.0,0.0,1e-05,0.0,0.0,0.0,0.0,0.0,0.0,1e+12,0.0,0.0,0.0,0.0,0.0,0.0,1e+12,0.0,0.0,0.0,0.0,0.0,0.0,1e+12,0.0,0.0,0.0,0.0,0.0,0.0,0.001,0.537397765793,0.0,0.0,0.0,0.0,0.00486089541923,0.0,0.0,0.0,0.0,0.0,0.0,0.0,0.0,0.0,0.0,0.0,0.0,0.0,0.0,0.0,0.0,0.0,0.0,0.0,0.0,0.0,0.0,0.0,0.0,0.0,0.0,0.0,0.0,0.0,0.0,0.0,0.0,0.0,0.0,0.0,0.0
274740000000,5000,274740000000,robotros_test/odom,robotros_test/chassis,0.33674444747,0.00265099144284,0.0,0.0,0.0,0.0060378485295,0.999981772026,1e-05,0.0,0.0,0.0,0.0,0.0,0.0,1e-05,0.0,0.0,0.0,0.0,0.0,0.0,1e+12,0.0,0.0,0.0,0.0,0.0,0.0,1e+12,0.0,0.0,0.0,0.0,0.0,0.0,1e+12,0.0,0.0,0.0,0.0,0.0,0.0,0.001,0.560762675483,0.0,0.0,0.0,0.0,0.00342981627089,0.0,0.0,0.0,0.0,0.0,0.0,0.0,0.0,0.0,0.0,0.0,0.0,0.0,0.0,0.0,0.0,0.0,0.0,0.0,0.0,0.0,0.0,0.0,0.0,0.0,0.0,0.0,0.0,0.0,0.0,0.0,0.0,0.0,0.0,0.0,0.0
274790000000,5001,274790000000,robotros_test/odom,robotros_test/chassis,0.365376313314,0.00299899926319,0.0,0.0,0.0,0.0061102022733,0.99998133254,1e-05,0.0,0.0,0.0,0.0,0.0,0.0,1e-05,0.0,0.0,0.0,0.0,0.0,0.0,1e+12,0.0,0.0,0.0,0.0,0.0,0.0,1e+12,0.0,0.0,0.0,0.0,0.0,0.0,1e+12,0.0,0.0,0.0,0.0,0.0,0.0,0.001,0.584131280205,0.0,0.0,0.0,0.0,0.00249795017955,0.0,0.0,0.0,0.0,0.0,0.0,0.0,0.0,0.0,0.0,0.0,0.0,0.0,0.0,0.0,0.0,0.0,0.0,0.0,0.0,0.0,0.0,0.0,0.0,0.0,0.0,0.0,0.0,0.0,0.0,0.0,0.0,0.0,0.0,0.0,0.0
274840000000,5002,274840000000,robotros_test/odom,robotros_test/chassis,0.395176806796,0.00336511971307,0.0,0.0,0.0,0.00617524191463,0.999980933012,1e-05,0.0,0.0,0.0,0.0,0.0,0.0,1e-05,0.0,0.0,0.0,0.0,0.0,0.0,1e+12,0.0,0.0,0.0,0.0,0.0,0.0,1e+12,0.0,0.0,0.0,0.0,0.0,0.0,1e+12,0.0,0.0,0.0,0.0,0.0,0.0,0.001,0.60749881951,0.0,0.0,0.0,0.0,0.00308302544577,0.0,0.0,0.0,0.0,0.0,0.0,0.0,0.0,0.0,0.0,0.0,0.0,0.0,0.0,0.0,0.0,0.0,0.0,0.0,0.0,0.0,0.0,0.0,0.0,0.0,0.0,0.0,0.0,0.0,0.0,0.0,0.0,0.0,0.0,0.0,0.0
274890000000,5003,274890000000,robotros_test/odom,robotros_test/chassis,0.426145135495,0.00375026095606,0.0,0.0,0.0,0.00626592608159,0.999980368892,1e-05,0.0,0.0,0.0,0.0,0.0,0.0,1e-05,0.0,0.0,0.0,0.0,0.0,0.0,1e+12,0.0,0.0,0.0,0.0,0.0,0.0,1e+12,0.0,0.0,0.0,0.0,0.0,0.0,1e+12,0.0,0.0,0.0,0.0,0.0,0.0,0.001,0.630866214729,0.0,0.0,0.0,0.0,0.00446781239986,0.0,0.0,0.0,0.0,0.0,0.0,0.0,0.0,0.0,0.0,0.0,0.0,0.0,0.0,0.0,0.0,0.0,0.0,0.0,0.0,0.0,0.0,0.0,0.0,0.0,0.0,0.0,0.0,0.0,0.0,0.0,0.0,0.0,0.0,0.0,0.0
274940000000,5004,274940000000,robotros_test/odom,robotros_test/chassis,0.458281578937,0.00415687430951,0.0,0.0,0.0,0.00639088045352,0.999979578115,1e-05,0.0,0.0,0.0,0.0,0.0,0.0,1e-05,0.0,0.0,0.0,0.0,0.0,0.0,1e+12,0.0,0.0,0.0,0.0,0.0,0.0,1e+12,0.0,0.0,0.0,0.0,0.0,0.0,1e+12,0.0,0.0,0.0,0.0,0.0,0.0,0.001,0.654263789577,0.0,0.0,0.0,0.0,0.00572434723936,0.0,0.0,0.0,0.0,0.0,0.0,0.0,0.0,0.0,0.0,0.0,0.0,0.0,0.0,0.0,0.0,0.0,0.0,0.0,0.0,0.0,0.0,0.0,0.0,0.0,0.0,0.0,0.0,0.0,0.0,0.0,0.0,0.0,0.0,0.0,0.0
274990000000,5005,274990000000,robotros_test/odom,robotros_test/chassis,0.491586577276,0.00458768676589,0.0,0.0,0.0,0.00654877013549,0.999978556575,1e-05,0.0,0.0,0.0,0.0,0.0,0.0,1e-05,0.0,0.0,0.0,0.0,0.0,0.0,1e+12,0.0,0.0,0.0,0.0,0.0,0.0,1e+12,0.0,0.0,0.0,0.0,0.0,0.0,1e+12,0.0,0.0,0.0,0.0,0.0,0.0,0.001,0.677629488331,0.0,0.0,0.0,0.0,0.00716367009228,0.0,0.0,0.0,0.0,0.0,0.0,0.0,0.0,0.0,0.0,0.0,0.0,0.0,0.0,0.0,0.0,0.0,0.0,0.0,0.0,0.0,0.0,0.0,0.0,0.0,0.0,0.0,0.0,0.0,0.0,0.0,0.0,0.0,0.0,0.0,0.0
275038000000,5006,275038000000,robotros_test/odom,robotros_test/chassis,0.526059225461,0.00504570294738,0.0,0.0,0.0,0.00674150750937,0.99997727578,1e-05,0.0,0.0,0.0,0.0,0.0,0.0,1e-05,0.0,0.0,0.0,0.0,0.0,0.0,1e+12,0.0,0.0,0.0,0.0,0.0,0.0,1e+12,0.0,0.0,0.0,0.0,0.0,0.0,1e+12,0.0,0.0,0.0,0.0,0.0,0.0,0.001,0.70099111346,0.0,0.0,0.0,0.0,0.0085558701532,0.0,0.0,0.0,0.0,0.0,0.0,0.0,0.0,0.0,0.0,0.0,0.0,0.0,0.0,0.0,0.0,0.0,0.0,0.0,0.0,0.0,0.0,0.0,0.0,0.0,0.0,0.0,0.0,0.0,0.0,0.0,0.0,0.0,0.0,0.0,0.0
275090000000,5007,275090000000,robotros_test/odom,robotros_test/chassis,0.561699651949,0.00553422456163,0.0,0.0,0.0,0.00696915132805,0.99997571517,1e-05,0.0,0.0,0.0,0.0,0.0,0.0,1e-05,0.0,0.0,0.0,0.0,0.0,0.0,1e+12,0.0,0.0,0.0,0.0,0.0,0.0,1e+12,0.0,0.0,0.0,0.0,0.0,0.0,1e+12,0.0,0.0,0.0,0.0,0.0,0.0,0.001,0.724352225299,0.0,0.0,0.0,0.0,0.00995650343991,0.0,0.0,0.0,0.0,0.0,0.0,0.0,0.0,0.0,0.0,0.0,0.0,0.0,0.0,0.0,0.0,0.0,0.0,0.0,0.0,0.0,0.0,0.0,0.0,0.0,0.0,0.0,0.0,0.0,0.0,0.0,0.0,0.0,0.0,0.0,0.0
275140000000,5008,275140000000,robotros_test/odom,robotros_test/chassis,0.59850779105,0.00605681169514,0.0,0.0,0.0,0.00723194371449,0.999973849153,1e-05,0.0,0.0,0.0,0.0,0.0,0.0,1e-05,0.0,0.0,0.0,0.0,0.0,0.0,1e+12,0.0,0.0,0.0,0.0,0.0,0.0,1e+12,0.0,0.0,0.0,0.0,0.0,0.0,1e+12,0.0,0.0,0.0,0.0,0.0,0.0,0.001,0.74771342889,0.0,0.0,0.0,0.0,0.0113678590231,0.0,0.0,0.0,0.0,0.0,0.0,0.0,0.0,0.0,0.0,0.0,0.0,0.0,0.0,0.0,0.0,0.0,0.0,0.0,0.0,0.0,0.0,0.0,0.0,0.0,0.0,0.0,0.0,0.0,0.0,0.0,0.0,0.0,0.0,0.0,0.0
275188000000,5009,275188000000,robotros_test/odom,robotros_test/chassis,0.636483602696,0.00661729047475,0.0,0.0,0.0,0.00753016732656,0.999971647888,1e-05,0.0,0.0,0.0,0.0,0.0,0.0,1e-05,0.0,0.0,0.0,0.0,0.0,0.0,1e+12,0.0,0.0,0.0,0.0,0.0,0.0,1e+12,0.0,0.0,0.0,0.0,0.0,0.0,1e+12,0.0,0.0,0.0,0.0,0.0,0.0,0.001,0.771075455753,0.0,0.0,0.0,0.0,0.0127908078927,0.0,0.0,0.0,0.0,0.0,0.0,0.0,0.0,0.0,0.0,0.0,0.0,0.0,0.0,0.0,0.0,0.0,0.0,0.0,0.0,0.0,0.0,0.0,0.0,0.0,0.0,0.0,0.0,0.0,0.0,0.0,0.0,0.0,0.0,0.0,0.0
275240000000,5010,275240000000,robotros_test/odom,robotros_test/chassis,0.675627518406,0.00721977287994,0.0,0.0,0.0,0.00786471815128,0.999969072626,1e-05,0.0,0.0,0.0,0.0,0.0,0.0,1e-05,0.0,0.0,0.0,0.0,0.0,0.0,1e+12,0.0,0.0,0.0,0.0,0.0,0.0,1e+12,0.0,0.0,0.0,0.0,0.0,0.0,1e+12,0.0,0.0,0.0,0.0,0.0,0.0,0.001,0.794428246102,0.0,0.0,0.0,0.0,0.0142939942039,0.0,0.0,0.0,0.0,0.0,0.0,0.0,0.0,0.0,0.0,0.0,0.0,0.0,0.0,0.0,0.0,0.0,0.0,0.0,0.0,0.0,0.0,0.0,0.0,0.0,0.0,0.0,0.0,0.0,0.0,0.0,0.0,0.0,0.0,0.0,0.0
275290000000,5011,275290000000,robotros_test/odom,robotros_test/chassis,0.715939491364,0.00786872909774,0.0,0.0,0.0,0.00823636209741,0.999966080594,1e-05,0.0,0.0,0.0,0.0,0.0,0.0,1e-05,0.0,0.0,0.0,0.0,0.0,0.0,1e+12,0.0,0.0,0.0,0.0,0.0,0.0,1e+12,0.0,0.0,0.0,0.0,0.0,0.0,1e+12,0.0,0.0,0.0,0.0,0.0,0.0,0.001,0.817792797946,0.0,0.0,0.0,0.0,0.0157367083488,0.0,0.0,0.0,0.0,0.0,0.0,0.0,0.0,0.0,0.0,0.0,0.0,0.0,0.0,0.0,0.0,0.0,0.0,0.0,0.0,0.0,0.0,0.0,0.0,0.0,0.0,0.0,0.0,0.0,0.0,0.0,0.0,0.0,0.0,0.0,0.0
275340000000,5012,275340000000,robotros_test/odom,robotros_test/chassis,0.757418659332,0.00856861719264,0.0,0.0,0.0,0.00863026597285,0.999962758561,1e-05,0.0,0.0,0.0,0.0,0.0,0.0,1e-05,0.0,0.0,0.0,0.0,0.0,0.0,1e+12,0.0,0.0,0.0,0.0,0.0,0.0,1e+12,0.0,0.0,0.0,0.0,0.0,0.0,1e+12,0.0,0.0,0.0,0.0,0.0,0.0,0.001,0.84112169951,0.0,0.0,0.0,0.0,0.0150212040597,0.0,0.0,0.0,0.0,0.0,0.0,0.0,0.0,0.0,0.0,0.0,0.0,0.0,0.0,0.0,0.0,0.0,0.0,0.0,0.0,0.0,0.0,0.0,0.0,0.0,0.0,0.0,0.0,0.0,0.0,0.0,0.0,0.0,0.0,0.0,0.0
275387000000,5013,275387000000,robotros_test/odom,robotros_test/chassis,0.800063800291,0.00932051902441,0.0,0.0,0.0,0.0089917569788,0.999959573336,1e-05,0.0,0.0,0.0,0.0,0.0,0.0,1e-05,0.0,0.0,0.0,0.0,0.0,0.0,1e+12,0.0,0.0,0.0,0.0,0.0,0.0,1e+12,0.0,0.0,0.0,0.0,0.0,0.0,1e+12,0.0,0.0,0.0,0.0,0.0,0.0,0.001,0.864489767058,0.0,0.0,0.0,0.0,0.0136181166059,0.0,0.0,0.0,0.0,0.0,0.0,0.0,0.0,0.0,0.0,0.0,0.0,0.0,0.0,0.0,0.0,0.0,0.0,0.0,0.0,0.0,0.0,0.0,0.0,0.0,0.0,0.0,0.0,0.0,0.0,0.0,0.0,0.0,0.0,0.0,0.0
275440000000,5014,275440000000,robotros_test/odom,robotros_test/chassis,0.843876496945,0.0101231653456,0.0,0.0,0.0,0.00931854598457,0.999956581408,1e-05,0.0,0.0,0.0,0.0,0.0,0.0,1e-05,0.0,0.0,0.0,0.0,0.0,0.0,1e+12,0.0,0.0,0.0,0.0,0.0,0.0,1e+12,0.0,0.0,0.0,0.0,0.0,0.0,1e+12,0.0,0.0,0.0,0.0,0.0,0.0,0.001,0.88785675917,0.0,0.0,0.0,0.0,0.0122240939433,0.0,0.0,0.0,0.0,0.0,0.0,0.0,0.0,0.0,0.0,0.0,0.0,0.0,0.0,0.0,0.0,0.0,0.0,0.0,0.0,0.0,0.0,0.0,0.0,0.0,0.0,0.0,0.0,0.0,0.0,0.0,0.0,0.0,0.0,0.0,0.0
275490000000,5015,275490000000,robotros_test/odom,robotros_test/chassis,0.888856774416,0.0109750268127,0.0,0.0,0.0,0.00961022225068,0.999953820748,1e-05,0.0,0.0,0.0,0.0,0.0,0.0,1e-05,0.0,0.0,0.0,0.0,0.0,0.0,1e+12,0.0,0.0,0.0,0.0,0.0,0.0,1e+12,0.0,0.0,0.0,0.0,0.0,0.0,1e+12,0.0,0.0,0.0,0.0,0.0,0.0,0.001,0.911222705886,0.0,0.0,0.0,0.0,0.0108085590686,0.0,0.0,0.0,0.0,0.0,0.0,0.0,0.0,0.0,0.0,0.0,0.0,0.0,0.0,0.0,0.0,0.0,0.0,0.0,0.0,0.0,0.0,0.0,0.0,0.0,0.0,0.0,0.0,0.0,0.0,0.0,0.0,0.0,0.0,0.0,0.0
275540000000,5016,275540000000,robotros_test/odom,robotros_test/chassis,0.93500467494,0.0118742810012,0.0,0.0,0.0,0.00986619228896,0.99995132794,1e-05,0.0,0.0,0.0,0.0,0.0,0.0,1e-05,0.0,0.0,0.0,0.0,0.0,0.0,1e+12,0.0,0.0,0.0,0.0,0.0,0.0,1e+12,0.0,0.0,0.0,0.0,0.0,0.0,1e+12,0.0,0.0,0.0,0.0,0.0,0.0,0.001,0.934587585749,0.0,0.0,0.0,0.0,0.00936798693982,0.0,0.0,0.0,0.0,0.0,0.0,0.0,0.0,0.0,0.0,0.0,0.0,0.0,0.0,0.0,0.0,0.0,0.0,0.0,0.0,0.0,0.0,0.0,0.0,0.0,0.0,0.0,0.0,0.0,0.0,0.0,0.0,0.0,0.0,0.0,0.0
275590000000,5017,275590000000,robotros_test/odom,robotros_test/chassis,0.982288107259,0.0128194720725,0.0,0.0,0.0,0.0102144046306,0.999947831608,1e-05,0.0,0.0,0.0,0.0,0.0,0.0,1e-05,0.0,0.0,0.0,0.0,0.0,0.0,1e+12,0.0,0.0,0.0,0.0,0.0,0.0,1e+12,0.0,0.0,0.0,0.0,0.0,0.0,1e+12,0.0,0.0,0.0,0.0,0.0,0.0,0.001,0.953871084775,0.0,0.0,0.0,0.0,0.0387108544443,0.0,0.0,0.0,0.0,0.0,0.0,0.0,0.0,0.0,0.0,0.0,0.0,0.0,0.0,0.0,0.0,0.0,0.0,0.0,0.0,0.0,0.0,0.0,0.0,0.0,0.0,0.0,0.0,0.0,0.0,0.0,0.0,0.0,0.0,0.0,0.0
275640000000,5018,275640000000,robotros_test/odom,robotros_test/chassis,1.03022990714,0.0138880112974,0.0,0.0,0.0,0.0124730814413,0.999922208094,1e-05,0.0,0.0,0.0,0.0,0.0,0.0,1e-05,0.0,0.0,0.0,0.0,0.0,0.0,1e+12,0.0,0.0,0.0,0.0,0.0,0.0,1e+12,0.0,0.0,0.0,0.0,0.0,0.0,1e+12,0.0,0.0,0.0,0.0,0.0,0.0,0.001,0.963525266448,0.0,0.0,0.0,0.0,0.135252663778,0.0,0.0,0.0,0.0,0.0,0.0,0.0,0.0,0.0,0.0,0.0,0.0,0.0,0.0,0.0,0.0,0.0,0.0,0.0,0.0,0.0,0.0,0.0,0.0,0.0,0.0,0.0,0.0,0.0,0.0,0.0,0.0,0.0,0.0,0.0,0.0
275690000000,5019,275690000000,robotros_test/odom,robotros_test/chassis,1.07855204744,0.0152852480493,0.0,0.0,0.0,0.0166820935957,0.999860844194,1e-05,0.0,0.0,0.0,0.0,0.0,0.0,1e-05,0.0,0.0,0.0,0.0,0.0,0.0,1e+12,0.0,0.0,0.0,0.0,0.0,0.0,1e+12,0.0,0.0,0.0,0.0,0.0,0.0,1e+12,0.0,0.0,0.0,0.0,0.0,0.0,0.001,0.969839048772,0.0,0.0,0.0,0.0,0.198390486367,0.0,0.0,0.0,0.0,0.0,0.0,0.0,0.0,0.0,0.0,0.0,0.0,0.0,0.0,0.0,0.0,0.0,0.0,0.0,0.0,0.0,0.0,0.0,0.0,0.0,0.0,0.0,0.0,0.0,0.0,0.0,0.0,0.0,0.0,0.0,0.0
275740000000,5020,275740000000,robotros_test/odom,robotros_test/chassis,1.12718013652,0.0171775607997,0.0,0.0,0.0,0.022501359065,0.999746812368,1e-05,0.0,0.0,0.0,0.0,0.0,0.0,1e-05,0.0,0.0,0.0,0.0,0.0,0.0,1e+12,0.0,0.0,0.0,0.0,0.0,0.0,1e+12,0.0,0.0,0.0,0.0,0.0,0.0,1e+12,0.0,0.0,0.0,0.0,0.0,0.0,0.001,0.976737815803,0.0,0.0,0.0,0.0,0.267397136813,0.0,0.0,0.0,0.0,0.0,0.0,0.0,0.0,0.0,0.0,0.0,0.0,0.0,0.0,0.0,0.0,0.0,0.0,0.0,0.0,0.0,0.0,0.0,0.0,0.0,0.0,0.0,0.0,0.0,0.0,0.0,0.0,0.0,0.0,0.0,0.0
275790000000,5021,275790000000,robotros_test/odom,robotros_test/chassis,1.17612911396,0.0197408790306,0.0,0.0,0.0,0.0300792588251,0.999547516724,1e-05,0.0,0.0,0.0,0.0,0.0,0.0,1e-05,0.0,0.0,0.0,0.0,0.0,0.0,1e+12,0.0,0.0,0.0,0.0,0.0,0.0,1e+12,0.0,0.0,0.0,0.0,0.0,0.0,1e+12,0.0,0.0,0.0,0.0,0.0,0.0,0.001,0.984306410245,0.0,0.0,0.0,0.0,0.343048697214,0.0,0.0,0.0,0.0,0.0,0.0,0.0,0.0,0.0,0.0,0.0,0.0,0.0,0.0,0.0,0.0,0.0,0.0,0.0,0.0,0.0,0.0,0.0,0.0,0.0,0.0,0.0,0.0,0.0,0.0,0.0,0.0,0.0,0.0,0.0,0.0
275840000000,5022,275840000000,robotros_test/odom,robotros_test/chassis,1.22541723026,0.0231666603706,0.0,0.0,0.0,0.0396123384292,0.999215123306,1e-05,0.0,0.0,0.0,0.0,0.0,0.0,1e-05,0.0,0.0,0.0,0.0,0.0,0.0,1e+12,0.0,0.0,0.0,0.0,0.0,0.0,1e+12,0.0,0.0,0.0,0.0,0.0,0.0,1e+12,0.0,0.0,0.0,0.0,0.0,0.0,0.001,0.992101832618,0.0,0.0,0.0,0.0,0.421023279082,0.0,0.0,0.0,0.0,0.0,0.0,0.0,0.0,0.0,0.0,0.0,0.0,0.0,0.0,0.0,0.0,0.0,0.0,0.0,0.0,0.0,0.0,0.0,0.0,0.0,0.0,0.0,0.0,0.0,0.0,0.0,0.0,0.0,0.0,0.0,0.0
275890000000,5023,275890000000,robotros_test/odom,robotros_test/chassis,1.27500418327,0.0276607561984,0.0,0.0,0.0,0.0510544150347,0.998695872979,1e-05,0.0,0.0,0.0,0.0,0.0,0.0,1e-05,0.0,0.0,0.0,0.0,0.0,0.0,1e+12,0.0,0.0,0.0,0.0,0.0,0.0,1e+12,0.0,0.0,0.0,0.0,0.0,0.0,1e+12,0.0,0.0,0.0,0.0,0.0,0.0,0.001,0.99994057235,0.0,0.0,0.0,0.0,0.499387501506,0.0,0.0,0.0,0.0,0.0,0.0,0.0,0.0,0.0,0.0,0.0,0.0,0.0,0.0,0.0,0.0,0.0,0.0,0.0,0.0,0.0,0.0,0.0,0.0,0.0,0.0,0.0,0.0,0.0,0.0,0.0,0.0,0.0,0.0,0.0,0.0
275940000000,5024,275940000000,robotros_test/odom,robotros_test/chassis,1.32467470378,0.0333806464655,0.0,0.0,0.0,0.063533012234,0.997979737448,1e-05,0.0,0.0,0.0,0.0,0.0,0.0,1e-05,0.0,0.0,0.0,0.0,0.0,0.0,1e+12,0.0,0.0,0.0,0.0,0.0,0.0,1e+12,0.0,0.0,0.0,0.0,0.0,0.0,1e+12,0.0,0.0,0.0,0.0,0.0,0.0,0.001,0.999976370476,0.0,0.0,0.0,0.0,0.500002466598,0.0,0.0,0.0,0.0,0.0,0.0,0.0,0.0,0.0,0.0,0.0,0.0,0.0,0.0,0.0,0.0,0.0,0.0,0.0,0.0,0.0,0.0,0.0,0.0,0.0,0.0,0.0,0.0,0.0,0.0,0.0,0.0,0.0,0.0,0.0,0.0
275990000000,5025,275990000000,robotros_test/odom,robotros_test/chassis,1.37418663334,0.0403403742865,0.0,0.0,0.0,0.076002498566,0.997107627196,1e-05,0.0,0.0,0.0,0.0,0.0,0.0,1e-05,0.0,0.0,0.0,0.0,0.0,0.0,1e+12,0.0,0.0,0.0,0.0,0.0,0.0,1e+12,0.0,0.0,0.0,0.0,0.0,0.0,1e+12,0.0,0.0,0.0,0.0,0.0,0.0,0.001,0.999999660491,0.0,0.0,0.0,0.0,0.500002250264,0.0,0.0,0.0,0.0,0.0,0.0,0.0,0.0,0.0,0.0,0.0,0.0,0.0,0.0,0.0,0.0,0.0,0.0,0.0,0.0,0.0,0.0,0.0,0.0,0.0,0.0,0.0,0.0,0.0,0.0,0.0,0.0,0.0,0.0,0.0,0.0
276040000000,5026,276040000000,robotros_test/odom,robotros_test/chassis,1.42350874163,0.0485354737678,0.0,0.0,0.0,0.0884593021123,0.996079791919,1e-05,0.0,0.0,0.0,0.0,0.0,0.0,1e-05,0.0,0.0,0.0,0.0,0.0,0.0,1e+12,0.0,0.0,0.0,0.0,0.0,0.0,1e+12,0.0,0.0,0.0,0.0,0.0,0.0,1e+12,0.0,0.0,0.0,0.0,0.0,0.0,0.001,1.00000000205,0.0,0.0,0.0,0.0,0.500000024344,0.0,0.0,0.0,0.0,0.0,0.0,0.0,0.0,0.0,0.0,0.0,0.0,0.0,0.0,0.0,0.0,0.0,0.0,0.0,0.0,0.0,0.0,0.0,0.0,0.0,0.0,0.0,0.0,0.0,0.0,0.0,0.0,0.0,0.0,0.0,0.0
276088000000,5027,276088000000,robotros_test/odom,robotros_test/chassis,1.47261095494,0.057961045158,0.0,0.0,0.0,0.100904289434,0.994896137481,1e-05,0.0,0.0,0.0,0.0,0.0,0.0,1e-05,0.0,0.0,0.0,0.0,0.0,0.0,1e+12,0.0,0.0,0.0,0.0,0.0,0.0,1e+12,0.0,0.0,0.0,0.0,0.0,0.0,1e+12,0.0,0.0,0.0,0.0,0.0,0.0,0.001,1.00000000101,0.0,0.0,0.0,0.0,0.500000004069,0.0,0.0,0.0,0.0,0.0,0.0,0.0,0.0,0.0,0.0,0.0,0.0,0.0,0.0,0.0,0.0,0.0,0.0,0.0,0.0,0.0,0.0,0.0,0.0,0.0,0.0,0.0,0.0,0.0,0.0,0.0,0.0,0.0,0.0,0.0,0.0
276140000000,5028,276140000000,robotros_test/odom,robotros_test/chassis,1.52146216571,0.0686112337306,0.0,0.0,0.0,0.113333489223,0.993557004012,1e-05,0.0,0.0,0.0,0.0,0.0,0.0,1e-05,0.0,0.0,0.0,0.0,0.0,0.0,1e+12,0.0,0.0,0.0,0.0,0.0,0.0,1e+12,0.0,0.0,0.0,0.0,0.0,0.0,1e+12,0.0,0.0,0.0,0.0,0.0,0.0,0.001,0.999999999447,0.0,0.0,0.0,0.0,0.499999996476,0.0,0.0,0.0,0.0,0.0,0.0,0.0,0.0,0.0,0.0,0.0,0.0,0.0,0.0,0.0,0.0,0.0,0.0,0.0,0.0,0.0,0.0,0.0,0.0,0.0,0.0,0.0,0.0,0.0,0.0,0.0,0.0,0.0,0.0,0.0,0.0
276190000000,5029,276190000000,robotros_test/odom,robotros_test/chassis,1.5700326838,0.080479874383,0.0,0.0,0.0,0.125748853626,0.99206210784,1e-05,0.0,0.0,0.0,0.0,0.0,0.0,1e-05,0.0,0.0,0.0,0.0,0.0,0.0,1e+12,0.0,0.0,0.0,0.0,0.0,0.0,1e+12,0.0,0.0,0.0,0.0,0.0,0.0,1e+12,0.0,0.0,0.0,0.0,0.0,0.0,0.001,0.999999999835,0.0,0.0,0.0,0.0,0.499999999116,0.0,0.0,0.0,0.0,0.0,0.0,0.0,0.0,0.0,0.0,0.0,0.0,0.0,0.0,0.0,0.0,0.0,0.0,0.0,0.0,0.0,0.0,0.0,0.0,0.0,0.0,0.0,0.0,0.0,0.0,0.0,0.0,0.0,0.0,0.0,0.0
276240000000,5030,276240000000,robotros_test/odom,robotros_test/chassis,1.61829036514,0.0935588819674,0.0,0.0,0.0,0.138140897394,0.990412586989,1e-05,0.0,0.0,0.0,0.0,0.0,0.0,1e-05,0.0,0.0,0.0,0.0,0.0,0.0,1e+12,0.0,0.0,0.0,0.0,0.0,0.0,1e+12,0.0,0.0,0.0,0.0,0.0,0.0,1e+12,0.0,0.0,0.0,0.0,0.0,0.0,0.001,0.999999999221,0.0,0.0,0.0,0.0,0.49999999333,0.0,0.0,0.0,0.0,0.0,0.0,0.0,0.0,0.0,0.0,0.0,0.0,0.0,0.0,0.0,0.0,0.0,0.0,0.0,0.0,0.0,0.0,0.0,0.0,0.0,0.0,0.0,0.0,0.0,0.0,0.0,0.0,0.0,0.0,0.0,0.0
276289000000,5031,276289000000,robotros_test/odom,robotros_test/chassis,1.66620592624,0.107840088956,0.0,0.0,0.0,0.15050497076,0.988609252322,1e-05,0.0,0.0,0.0,0.0,0.0,0.0,1e-05,0.0,0.0,0.0,0.0,0.0,0.0,1e+12,0.0,0.0,0.0,0.0,0.0,0.0,1e+12,0.0,0.0,0.0,0.0,0.0,0.0,1e+12,0.0,0.0,0.0,0.0,0.0,0.0,0.001,1.0000000013,0.0,0.0,0.0,0.0,0.50000003237,0.0,0.0,0.0,0.0,0.0,0.0,0.0,0.0,0.0,0.0,0.0,0.0,0.0,0.0,0.0,0.0,0.0,0.0,0.0,0.0,0.0,0.0,0.0,0.0,0.0,0.0,0.0,0.0,0.0,0.0,0.0,0.0,0.0,0.0,0.0,0.0
276340000000,5032,276340000000,robotros_test/odom,robotros_test/chassis,1.71375012584,0.123314067665,0.0,0.0,0.0,0.162847145887,0.986651309773,1e-05,0.0,0.0,0.0,0.0,0.0,0.0,1e-05,0.0,0.0,0.0,0.0,0.0,0.0,1e+12,0.0,0.0,0.0,0.0,0.0,0.0,1e+12,0.0,0.0,0.0,0.0,0.0,0.0,1e+12,0.0,0.0,0.0,0.0,0.0,0.0,0.001,1.00000120633,0.0,0.0,0.0,0.0,0.499979090567,0.0,0.0,0.0,0.0,0.0,0.0,0.0,0.0,0.0,0.0,0.0,0.0,0.0,0.0,0.0,0.0,0.0,0.0,0.0,0.0,0.0,0.0,0.0,0.0,0.0,0.0,0.0,0.0,0.0,0.0,0.0,0.0,0.0,0.0,0.0,0.0
276390000000,5033,276390000000,robotros_test/odom,robotros_test/chassis,1.76089240874,0.139971535479,0.0,0.0,0.0,0.175167234066,0.984538694064,1e-05,0.0,0.0,0.0,0.0,0.0,0.0,1e-05,0.0,0.0,0.0,0.0,0.0,0.0,1e+12,0.0,0.0,0.0,0.0,0.0,0.0,1e+12,0.0,0.0,0.0,0.0,0.0,0.0,1e+12,0.0,0.0,0.0,0.0,0.0,0.0,0.001,0.999999966372,0.0,0.0,0.0,0.0,0.499999818612,0.0,0.0,0.0,0.0,0.0,0.0,0.0,0.0,0.0,0.0,0.0,0.0,0.0,0.0,0.0,0.0,0.0,0.0,0.0,0.0,0.0,0.0,0.0,0.0,0.0,0.0,0.0,0.0,0.0,0.0,0.0,0.0,0.0,0.0,0.0,0.0
276440000000,5034,276440000000,robotros_test/odom,robotros_test/chassis,1.80760368631,0.157802279498,0.0,0.0,0.0,0.187459984477,0.982272240379,1e-05,0.0,0.0,0.0,0.0,0.0,0.0,1e-05,0.0,0.0,0.0,0.0,0.0,0.0,1e+12,0.0,0.0,0.0,0.0,0.0,0.0,1e+12,0.0,0.0,0.0,0.0,0.0,0.0,1e+12,0.0,0.0,0.0,0.0,0.0,0.0,0.001,0.999999928808,0.0,0.0,0.0,0.0,0.499999344227,0.0,0.0,0.0,0.0,0.0,0.0,0.0,0.0,0.0,0.0,0.0,0.0,0.0,0.0,0.0,0.0,0.0,0.0,0.0,0.0,0.0,0.0,0.0,0.0,0.0,0.0,0.0,0.0,0.0,0.0,0.0,0.0,0.0,0.0,0.0,0.0
276490000000,5035,276490000000,robotros_test/odom,robotros_test/chassis,1.85385460428,0.176795095362,0.0,0.0,0.0,0.199723382625,0.979852320726,1e-05,0.0,0.0,0.0,0.0,0.0,0.0,1e-05,0.0,0.0,0.0,0.0,0.0,0.0,1e+12,0.0,0.0,0.0,0.0,0.0,0.0,1e+12,0.0,0.0,0.0,0.0,0.0,0.0,1e+12,0.0,0.0,0.0,0.0,0.0,0.0,0.001,0.999999916224,0.0,0.0,0.0,0.0,0.499999231359,0.0,0.0,0.0,0.0,0.0,0.0,0.0,0.0,0.0,0.0,0.0,0.0,0.0,0.0,0.0,0.0,0.0,0.0,0.0,0.0,0.0,0.0,0.0,0.0,0.0,0.0,0.0,0.0,0.0,0.0,0.0,0.0,0.0,0.0,0.0,0.0
276539000000,5036,276539000000,robotros_test/odom,robotros_test/chassis,1.89961630147,0.196938141576,0.0,0.0,0.0,0.211955753806,0.977279263276,1e-05,0.0,0.0,0.0,0.0,0.0,0.0,1e-05,0.0,0.0,0.0,0.0,0.0,0.0,1e+12,0.0,0.0,0.0,0.0,0.0,0.0,1e+12,0.0,0.0,0.0,0.0,0.0,0.0,1e+12,0.0,0.0,0.0,0.0,0.0,0.0,0.001,0.999999999557,0.0,0.0,0.0,0.0,0.49999999944,0.0,0.0,0.0,0.0,0.0,0.0,0.0,0.0,0.0,0.0,0.0,0.0,0.0,0.0,0.0,0.0,0.0,0.0,0.0,0.0,0.0,0.0,0.0,0.0,0.0,0.0,0.0,0.0,0.0,0.0,0.0,0.0,0.0,0.0,0.0,0.0
276590000000,5037,276590000000,robotros_test/odom,robotros_test/chassis,1.94485996665,0.218218703091,0.0,0.0,0.0,0.224154690319,0.974553577187,1e-05,0.0,0.0,0.0,0.0,0.0,0.0,1e-05,0.0,0.0,0.0,0.0,0.0,0.0,1e+12,0.0,0.0,0.0,0.0,0.0,0.0,1e+12,0.0,0.0,0.0,0.0,0.0,0.0,1e+12,0.0,0.0,0.0,0.0,0.0,0.0,0.001,0.999999998892,0.0,0.0,0.0,0.0,0.499999995777,0.0,0.0,0.0,0.0,0.0,0.0,0.0,0.0,0.0,0.0,0.0,0.0,0.0,0.0,0.0,0.0,0.0,0.0,0.0,0.0,0.0,0.0,0.0,0.0,0.0,0.0,0.0,0.0,0.0,0.0,0.0,0.0,0.0,0.0,0.0,0.0
276640000000,5038,276640000000,robotros_test/odom,robotros_test/chassis,1.98955675432,0.24062301957,0.0,0.0,0.0,0.236314716756,0.971676568949,1e-05,0.0,0.0,0.0,0.0,0.0,0.0,1e-05,0.0,0.0,0.0,0.0,0.0,0.0,1e+12,0.0,0.0,0.0,0.0,0.0,0.0,1e+12,0.0,0.0,0.0,0.0,0.0,0.0,1e+12,0.0,0.0,0.0,0.0,0.0,0.0,0.001,1.00001033984,0.0,0.0,0.0,0.0,0.499985529784,0.0,0.0,0.0,0.0,0.0,0.0,0.0,0.0,0.0,0.0,0.0,0.0,0.0,0.0,0.0,0.0,0.0,0.0,0.0,0.0,0.0,0.0,0.0,0.0,0.0,0.0,0.0,0.0,0.0,0.0,0.0,0.0,0.0,0.0,0.0,0.0
276690000000,5039,276690000000,robotros_test/odom,robotros_test/chassis,2.03368072239,0.264138416557,0.0,0.0,0.0,0.248446726093,0.968645561748,1e-05,0.0,0.0,0.0,0.0,0.0,0.0,1e-05,0.0,0.0,0.0,0.0,0.0,0.0,1e+12,0.0,0.0,0.0,0.0,0.0,0.0,1e+12,0.0,0.0,0.0,0.0,0.0,0.0,1e+12,0.0,0.0,0.0,0.0,0.0,0.0,0.001,1.00000009461,0.0,0.0,0.0,0.0,0.50000051567,0.0,0.0,0.0,0.0,0.0,0.0,0.0,0.0,0.0,0.0,0.0,0.0,0.0,0.0,0.0,0.0,0.0,0.0,0.0,0.0,0.0,0.0,0.0,0.0,0.0,0.0,0.0,0.0,0.0,0.0,0.0,0.0,0.0,0.0,0.0,0.0
276740000000,5040,276740000000,robotros_test/odom,robotros_test/chassis,2.077203158,0.288749852837,0.0,0.0,0.0,0.260540773484,0.965462845143,1e-05,0.0,0.0,0.0,0.0,0.0,0.0,1e-05,0.0,0.0,0.0,0.0,0.0,0.0,1e+12,0.0,0.0,0.0,0.0,0.0,0.0,1e+12,0.0,0.0,0.0,0.0,0.0,0.0,1e+12,0.0,0.0,0.0,0.0,0.0,0.0,0.001,1.000000002,0.0,0.0,0.0,0.0,0.500000023062,0.0,0.0,0.0,0.0,0.0,0.0,0.0,0.0,0.0,0.0,0.0,0.0,0.0,0.0,0.0,0.0,0.0,0.0,0.0,0.0,0.0,0.0,0.0,0.0,0.0,0.0,0.0,0.0,0.0,0.0,0.0,0.0,0.0,0.0,0.0,0.0
276790000000,5041,276790000000,robotros_test/odom,robotros_test/chassis,2.12009692999,0.314442546217,0.0,0.0,0.0,0.272595752396,0.96212865864,1e-05,0.0,0.0,0.0,0.0,0.0,0.0,1e-05,0.0,0.0,0.0,0.0,0.0,0.0,1e+12,0.0,0.0,0.0,0.0,0.0,0.0,1e+12,0.0,0.0,0.0,0.0,0.0,0.0,1e+12,0.0,0.0,0.0,0.0,0.0,0.0,0.001,0.999999999647,0.0,0.0,0.0,0.0,0.499999995067,0.0,0.0,0.0,0.0,0.0,0.0,0.0,0.0,0.0,0.0,0.0,0.0,0.0,0.0,0.0,0.0,0.0,0.0,0.0,0.0,0.0,0.0,0.0,0.0,0.0,0.0,0.0,0.0,0.0,0.0,0.0,0.0,0.0,0.0,0.0,0.0
276840000000,5042,276840000000,robotros_test/odom,robotros_test/chassis,2.16233385789,0.341199166635,0.0,0.0,0.0,0.284601057168,0.958646044304,1e-05,0.0,0.0,0.0,0.0,0.0,0.0,1e-05,0.0,0.0,0.0,0.0,0.0,0.0,1e+12,0.0,0.0,0.0,0.0,0.0,0.0,1e+12,0.0,0.0,0.0,0.0,0.0,0.0,1e+12,0.0,0.0,0.0,0.0,0.0,0.0,0.001,1.0000000004,0.0,0.0,0.0,0.0,0.500000006453,0.0,0.0,0.0,0.0,0.0,0.0,0.0,0.0,0.0,0.0,0.0,0.0,0.0,0.0,0.0,0.0,0.0,0.0,0.0,0.0,0.0,0.0,0.0,0.0,0.0,0.0,0.0,0.0,0.0,0.0,0.0,0.0,0.0,0.0,0.0,0.0
276890000000,5043,276890000000,robotros_test/odom,robotros_test/chassis,2.20388874015,0.36900324644,0.0,0.0,0.0,0.296561604631,0.955013724854,1e-05,0.0,0.0,0.0,0.0,0.0,0.0,1e-05,0.0,0.0,0.0,0.0,0.0,0.0,1e+12,0.0,0.0,0.0,0.0,0.0,0.0,1e+12,0.0,0.0,0.0,0.0,0.0,0.0,1e+12,0.0,0.0,0.0,0.0,0.0,0.0,0.001,1.00000204223,0.0,0.0,0.0,0.0,0.500007330664,0.0,0.0,0.0,0.0,0.0,0.0,0.0,0.0,0.0,0.0,0.0,0.0,0.0,0.0,0.0,0.0,0.0,0.0,0.0,0.0,0.0,0.0,0.0,0.0,0.0,0.0,0.0,0.0,0.0,0.0,0.0,0.0,0.0,0.0,0.0,0.0
276940000000,5044,276940000000,robotros_test/odom,robotros_test/chassis,2.24473552402,0.397837337239,0.0,0.0,0.0,0.30847569747,0.95123222405,1e-05,0.0,0.0,0.0,0.0,0.0,0.0,1e-05,0.0,0.0,0.0,0.0,0.0,0.0,1e+12,0.0,0.0,0.0,0.0,0.0,0.0,1e+12,0.0,0.0,0.0,0.0,0.0,0.0,1e+12,0.0,0.0,0.0,0.0,0.0,0.0,0.001,0.999999907492,0.0,0.0,0.0,0.0,0.499999153791,0.0,0.0,0.0,0.0,0.0,0.0,0.0,0.0,0.0,0.0,0.0,0.0,0.0,0.0,0.0,0.0,0.0,0.0,0.0,0.0,0.0,0.0,0.0,0.0,0.0,0.0,0.0,0.0,0.0,0.0,0.0,0.0,0.0,0.0,0.0,0.0
276990000000,5045,276990000000,robotros_test/odom,robotros_test/chassis,2.28484930826,0.427683071319,0.0,0.0,0.0,0.320331133254,0.947305634454,1e-05,0.0,0.0,0.0,0.0,0.0,0.0,1e-05,0.0,0.0,0.0,0.0,0.0,0.0,1e+12,0.0,0.0,0.0,0.0,0.0,0.0,1e+12,0.0,0.0,0.0,0.0,0.0,0.0,1e+12,0.0,0.0,0.0,0.0,0.0,0.0,0.001,0.99999830545,0.0,0.0,0.0,0.0,0.499984644506,0.0,0.0,0.0,0.0,0.0,0.0,0.0,0.0,0.0,0.0,0.0,0.0,0.0,0.0,0.0,0.0,0.0,0.0,0.0,0.0,0.0,0.0,0.0,0.0,0.0,0.0,0.0,0.0,0.0,0.0,0.0,0.0,0.0,0.0,0.0,0.0
277040000000,5046,277040000000,robotros_test/odom,robotros_test/chassis,2.32420475205,0.458521823962,0.0,0.0,0.0,0.332147001203,0.943227634027,1e-05,0.0,0.0,0.0,0.0,0.0,0.0,1e-05,0.0,0.0,0.0,0.0,0.0,0.0,1e+12,0.0,0.0,0.0,0.0,0.0,0.0,1e+12,0.0,0.0,0.0,0.0,0.0,0.0,1e+12,0.0,0.0,0.0,0.0,0.0,0.0,0.001,0.999999594569,0.0,0.0,0.0,0.0,0.499983783792,0.0,0.0,0.0,0.0,0.0,0.0,0.0,0.0,0.0,0.0,0.0,0.0,0.0,0.0,0.0,0.0,0.0,0.0,0.0,0.0,0.0,0.0,0.0,0.0,0.0,0.0,0.0,0.0,0.0,0.0,0.0,0.0,0.0,0.0,0.0,0.0
277090000000,5047,277090000000,robotros_test/odom,robotros_test/chassis,2.36277690863,0.490334626418,0.0,0.0,0.0,0.343911036844,0.939002235747,1e-05,0.0,0.0,0.0,0.0,0.0,0.0,1e-05,0.0,0.0,0.0,0.0,0.0,0.0,1e+12,0.0,0.0,0.0,0.0,0.0,0.0,1e+12,0.0,0.0,0.0,0.0,0.0,0.0,1e+12,0.0,0.0,0.0,0.0,0.0,0.0,0.001,0.999999902708,0.0,0.0,0.0,0.0,0.499999110594,0.0,0.0,0.0,0.0,0.0,0.0,0.0,0.0,0.0,0.0,0.0,0.0,0.0,0.0,0.0,0.0,0.0,0.0,0.0,0.0,0.0,0.0,0.0,0.0,0.0,0.0,0.0,0.0,0.0,0.0,0.0,0.0,0.0,0.0,0.0,0.0
