%time,field.header.seq,field.header.stamp,field.header.frame_id,field.child_frame_id,field.pose.pose.position.x,field.pose.pose.position.y,field.pose.pose.position.z,field.pose.pose.orientation.x,field.pose.pose.orientation.y,field.pose.pose.orientation.z,field.pose.pose.orientation.w,field.pose.covariance0,field.pose.covariance1,field.pose.covariance2,field.pose.covariance3,field.pose.covariance4,field.pose.covariance5,field.pose.covariance6,field.pose.covariance7,field.pose.covariance8,field.pose.covariance9,field.pose.covariance10,field.pose.covariance11,field.pose.covariance12,field.pose.covariance13,field.pose.covariance14,field.pose.covariance15,field.pose.covariance16,field.pose.covariance17,field.pose.covariance18,field.pose.covariance19,field.pose.covariance20,field.pose.covariance21,field.pose.covariance22,field.pose.covariance23,field.pose.covariance24,field.pose.covariance25,field.pose.covariance26,field.pose.covariance27,field.pose.covariance28,field.pose.covariance29,field.pose.covariance30,field.pose.covariance31,field.pose.covariance32,field.pose.covariance33,field.pose.covariance34,field.pose.covariance35,field.twist.twist.linear.x,field.twist.twist.linear.y,field.twist.twist.linear.z,field.twist.twist.angular.x,field.twist.twist.angular.y,field.twist.twist.angular.z,field.twist.covariance0,field.twist.covariance1,field.twist.covariance2,field.twist.covariance3,field.twist.covariance4,field.twist.covariance5,field.twist.covariance6,field.twist.covariance7,field.twist.covariance8,field.twist.covariance9,field.twist.covariance10,field.twist.covariance11,field.twist.covariance12,field.twist.covariance13,field.twist.covariance14,field.twist.covariance15,field.twist.covariance16,field.twist.covariance17,field.twist.covariance18,field.twist.covariance19,field.twist.covariance20,field.twist.covariance21,field.twist.covariance22,field.twist.covariance23,field.twist.covariance24,field.twist.covariance25,field.twist.covariance26,field.twist.covariance27,field.twist.covariance28,field.twist.covariance29,field.twist.covariance30,field.twist.covariance31,field.twist.covariance32,field.twist.covariance33,field.twist.covariance34,field.twist.covariance35
58400000000,12799,58400000000,robotros_test/odom,robotros_test/chassis,0.00331416261048,0.000413745466342,-2.67654459152e-08,-2.11507860282e-06,-5.59455161906e-08,0.00227068959112,0.999997421979,1e-05,0.0,0.0,0.0,0.0,0.0,0.0,1e-05,0.0,0.0,0.0,0.0,0.0,0.0,1e+12,0.0,0.0,0.0,0.0,0.0,0.0,1e+12,0.0,0.0,0.0,0.0,0.0,0.0,1e+12,0.0,0.0,0.0,0.0,0.0,0.0,0.001,1.2179817679e-05,-1.842699116e-05,0.0,0.0,0.0,7.57079573875e-05,0.0,0.0,0.0,0.0,0.0,0.0,0.0,0.0,0.0,0.0,0.0,0.0,0.0,0.0,0.0,0.0,0.0,0.0,0.0,0.0,0.0,0.0,0.0,0.0,0.0,0.0,0.0,0.0,0.0,0.0,0.0,0.0,0.0,0.0,0.0,0.0
58450000000,12800,58450000000,robotros_test/odom,robotros_test/chassis,0.00331501822097,0.00041339548634,-2.67654461095e-08,-2.11507858275e-06,-5.59495909839e-08,0.00227261588678,0.999997417603,1e-05,0.0,0.0,0.0,0.0,0.0,0.0,1e-05,0.0,0.0,0.0,0.0,0.0,0.0,1e+12,0.0,0.0,0.0,0.0,0.0,0.0,1e+12,0.0,0.0,0.0,0.0,0.0,0.0,1e+12,0.0,0.0,0.0,0.0,0.0,0.0,0.001,1.21798179998e-05,-1.84269924624e-05,0.0,0.0,0.0,7.57079986179e-05,0.0,0.0,0.0,0.0,0.0,0.0,0.0,0.0,0.0,0.0,0.0,0.0,0.0,0.0,0.0,0.0,0.0,0.0,0.0,0.0,0.0,0.0,0.0,0.0,0.0,0.0,0.0,0.0,0.0,0.0,0.0,0.0,0.0,0.0,0.0,0.0
58500000000,12801,58500000000,robotros_test/odom,robotros_test/chassis,0.00331587383277,0.00041304550959,-2.6765446276e-08,-2.11507856266e-06,-5.59536657548e-08,0.00227454218346,0.999997413223,1e-05,0.0,0.0,0.0,0.0,0.0,0.0,1e-05,0.0,0.0,0.0,0.0,0.0,0.0,1e+12,0.0,0.0,0.0,0.0,0.0,0.0,1e+12,0.0,0.0,0.0,0.0,0.0,0.0,1e+12,0.0,0.0,0.0,0.0,0.0,0.0,0.001,1.21798175771e-05,-1.84269926639e-05,0.0,0.0,0.0,7.57080399219e-05,0.0,0.0,0.0,0.0,0.0,0.0,0.0,0.0,0.0,0.0,0.0,0.0,0.0,0.0,0.0,0.0,0.0,0.0,0.0,0.0,0.0,0.0,0.0,0.0,0.0,0.0,0.0,0.0,0.0,0.0,0.0,0.0,0.0,0.0,0.0,0.0
58547000000,12802,58547000000,robotros_test/odom,robotros_test/chassis,0.00331672944588,0.000412695536094,-2.6765446387e-08,-2.11507854248e-06,-5.59577405925e-08,0.00227646848117,0.99999740884,1e-05,0.0,0.0,0.0,0.0,0.0,0.0,1e-05,0.0,0.0,0.0,0.0,0.0,0.0,1e+12,0.0,0.0,0.0,0.0,0.0,0.0,1e+12,0.0,0.0,0.0,0.0,0.0,0.0,1e+12,0.0,0.0,0.0,0.0,0.0,0.0,0.001,1.21798178947e-05,-1.84269939728e-05,0.0,0.0,0.0,7.5708081188e-05,0.0,0.0,0.0,0.0,0.0,0.0,0.0,0.0,0.0,0.0,0.0,0.0,0.0,0.0,0.0,0.0,0.0,0.0,0.0,0.0,0.0,0.0,0.0,0.0,0.0,0.0,0.0,0.0,0.0,0.0,0.0,0.0,0.0,0.0,0.0,0.0
58600000000,12803,58600000000,robotros_test/odom,robotros_test/chassis,0.0033175850603,0.00041234556585,-2.67654465258e-08,-2.11507852239e-06,-5.59618153193e-08,0.00227839477991,0.999997404453,1e-05,0.0,0.0,0.0,0.0,0.0,0.0,1e-05,0.0,0.0,0.0,0.0,0.0,0.0,1e+12,0.0,0.0,0.0,0.0,0.0,0.0,1e+12,0.0,0.0,0.0,0.0,0.0,0.0,1e+12,0.0,0.0,0.0,0.0,0.0,0.0,0.001,1.21798182067e-05,-1.84269952796e-05,0.0,0.0,0.0,7.57081225367e-05,0.0,0.0,0.0,0.0,0.0,0.0,0.0,0.0,0.0,0.0,0.0,0.0,0.0,0.0,0.0,0.0,0.0,0.0,0.0,0.0,0.0,0.0,0.0,0.0,0.0,0.0,0.0,0.0,0.0,0.0,0.0,0.0,0.0,0.0,0.0,0.0
58650000000,12804,58650000000,robotros_test/odom,robotros_test/chassis,0.00331844067602,0.000411995598859,-2.67654467201e-08,-2.11507850233e-06,-5.59658901802e-08,0.00228032107967,0.999997400062,1e-05,0.0,0.0,0.0,0.0,0.0,0.0,1e-05,0.0,0.0,0.0,0.0,0.0,0.0,1e+12,0.0,0.0,0.0,0.0,0.0,0.0,1e+12,0.0,0.0,0.0,0.0,0.0,0.0,1e+12,0.0,0.0,0.0,0.0,0.0,0.0,0.001,1.21798185195e-05,-1.84269965696e-05,0.0,0.0,0.0,7.57081638062e-05,0.0,0.0,0.0,0.0,0.0,0.0,0.0,0.0,0.0,0.0,0.0,0.0,0.0,0.0,0.0,0.0,0.0,0.0,0.0,0.0,0.0,0.0,0.0,0.0,0.0,0.0,0.0,0.0,0.0,0.0,0.0,0.0,0.0,0.0,0.0,0.0
58700000000,12805,58700000000,robotros_test/odom,robotros_test/chassis,0.00331929629305,0.000411645635121,-2.67654468311e-08,-2.11507848218e-06,-5.5969964947e-08,0.00228224738046,0.999997395668,1e-05,0.0,0.0,0.0,0.0,0.0,0.0,1e-05,0.0,0.0,0.0,0.0,0.0,0.0,1e+12,0.0,0.0,0.0,0.0,0.0,0.0,1e+12,0.0,0.0,0.0,0.0,0.0,0.0,1e+12,0.0,0.0,0.0,0.0,0.0,0.0,0.001,1.21798181111e-05,-1.8426996778e-05,0.0,0.0,0.0,7.57082051011e-05,0.0,0.0,0.0,0.0,0.0,0.0,0.0,0.0,0.0,0.0,0.0,0.0,0.0,0.0,0.0,0.0,0.0,0.0,0.0,0.0,0.0,0.0,0.0,0.0,0.0,0.0,0.0,0.0,0.0,0.0,0.0,0.0,0.0,0.0,0.0,0.0
58750000000,12806,58750000000,robotros_test/odom,robotros_test/chassis,0.00332015191138,0.000411295674636,-2.67654470532e-08,-2.11507846203e-06,-5.59740397819e-08,0.00228417368227,0.99999739127,1e-05,0.0,0.0,0.0,0.0,0.0,0.0,1e-05,0.0,0.0,0.0,0.0,0.0,0.0,1e+12,0.0,0.0,0.0,0.0,0.0,0.0,1e+12,0.0,0.0,0.0,0.0,0.0,0.0,1e+12,0.0,0.0,0.0,0.0,0.0,0.0,0.001,1.21798184243e-05,-1.84269980792e-05,0.0,0.0,0.0,7.57082463267e-05,0.0,0.0,0.0,0.0,0.0,0.0,0.0,0.0,0.0,0.0,0.0,0.0,0.0,0.0,0.0,0.0,0.0,0.0,0.0,0.0,0.0,0.0,0.0,0.0,0.0,0.0,0.0,0.0,0.0,0.0,0.0,0.0,0.0,0.0,0.0,0.0
58800000000,12807,58800000000,robotros_test/odom,robotros_test/chassis,0.00332100753102,0.000410945717404,-2.67654471364e-08,-2.11507844195e-06,-5.59781145951e-08,0.00228609998511,0.999997386868,1e-05,0.0,0.0,0.0,0.0,0.0,0.0,1e-05,0.0,0.0,0.0,0.0,0.0,0.0,1e+12,0.0,0.0,0.0,0.0,0.0,0.0,1e+12,0.0,0.0,0.0,0.0,0.0,0.0,1e+12,0.0,0.0,0.0,0.0,0.0,0.0,0.001,1.21798187363e-05,-1.84269993837e-05,0.0,0.0,0.0,7.57082876909e-05,0.0,0.0,0.0,0.0,0.0,0.0,0.0,0.0,0.0,0.0,0.0,0.0,0.0,0.0,0.0,0.0,0.0,0.0,0.0,0.0,0.0,0.0,0.0,0.0,0.0,0.0,0.0,0.0,0.0,0.0,0.0,0.0,0.0,0.0,0.0,0.0
58850000000,12808,58850000000,robotros_test/odom,robotros_test/chassis,0.00332186315197,0.000410595763425,-2.6765447303e-08,-2.11507842179e-06,-5.59821893985e-08,0.00228802628898,0.999997382462,1e-05,0.0,0.0,0.0,0.0,0.0,0.0,1e-05,0.0,0.0,0.0,0.0,0.0,0.0,1e+12,0.0,0.0,0.0,0.0,0.0,0.0,1e+12,0.0,0.0,0.0,0.0,0.0,0.0,1e+12,0.0,0.0,0.0,0.0,0.0,0.0,0.001,1.21798183164e-05,-1.84269995917e-05,0.0,0.0,0.0,7.57083289884e-05,0.0,0.0,0.0,0.0,0.0,0.0,0.0,0.0,0.0,0.0,0.0,0.0,0.0,0.0,0.0,0.0,0.0,0.0,0.0,0.0,0.0,0.0,0.0,0.0,0.0,0.0,0.0,0.0,0.0,0.0,0.0,0.0,0.0,0.0,0.0,0.0
58900000000,12809,58900000000,robotros_test/odom,robotros_test/chassis,0.00332271877423,0.000410245812699,-2.67654474695e-08,-2.11507840163e-06,-5.59862642552e-08,0.00228995259387,0.999997378053,1e-05,0.0,0.0,0.0,0.0,0.0,0.0,1e-05,0.0,0.0,0.0,0.0,0.0,0.0,1e+12,0.0,0.0,0.0,0.0,0.0,0.0,1e+12,0.0,0.0,0.0,0.0,0.0,0.0,1e+12,0.0,0.0,0.0,0.0,0.0,0.0,0.001,1.21798186403e-05,-1.84270008913e-05,0.0,0.0,0.0,7.57083701934e-05,0.0,0.0,0.0,0.0,0.0,0.0,0.0,0.0,0.0,0.0,0.0,0.0,0.0,0.0,0.0,0.0,0.0,0.0,0.0,0.0,0.0,0.0,0.0,0.0,0.0,0.0,0.0,0.0,0.0,0.0,0.0,0.0,0.0,0.0,0.0,0.0
58950000000,12810,58950000000,robotros_test/odom,robotros_test/chassis,0.00332357439779,0.000409895865226,-2.6765447636e-08,-2.11507838147e-06,-5.59903390781e-08,0.00229187889979,0.99999737364,1e-05,0.0,0.0,0.0,0.0,0.0,0.0,1e-05,0.0,0.0,0.0,0.0,0.0,0.0,1e+12,0.0,0.0,0.0,0.0,0.0,0.0,1e+12,0.0,0.0,0.0,0.0,0.0,0.0,1e+12,0.0,0.0,0.0,0.0,0.0,0.0,0.001,1.21798189462e-05,-1.84270022032e-05,0.0,0.0,0.0,7.57084115075e-05,0.0,0.0,0.0,0.0,0.0,0.0,0.0,0.0,0.0,0.0,0.0,0.0,0.0,0.0,0.0,0.0,0.0,0.0,0.0,0.0,0.0,0.0,0.0,0.0,0.0,0.0,0.0,0.0,0.0,0.0,0.0,0.0,0.0,0.0,0.0,0.0
59000000000,12811,59000000000,robotros_test/odom,robotros_test/chassis,0.00332443002266,0.000409545921006,-2.6765447747e-08,-2.11507836132e-06,-5.59944138874e-08,0.00229380520673,0.999997369223,1e-05,0.0,0.0,0.0,0.0,0.0,0.0,1e-05,0.0,0.0,0.0,0.0,0.0,0.0,1e+12,0.0,0.0,0.0,0.0,0.0,0.0,1e+12,0.0,0.0,0.0,0.0,0.0,0.0,1e+12,0.0,0.0,0.0,0.0,0.0,0.0,0.001,1.2179818544e-05,-1.84270024081e-05,0.0,0.0,0.0,7.57084527904e-05,0.0,0.0,0.0,0.0,0.0,0.0,0.0,0.0,0.0,0.0,0.0,0.0,0.0,0.0,0.0,0.0,0.0,0.0,0.0,0.0,0.0,0.0,0.0,0.0,0.0,0.0,0.0,0.0,0.0,0.0,0.0,0.0,0.0,0.0,0.0,0.0
59050000000,12812,59050000000,robotros_test/odom,robotros_test/chassis,0.00332528564884,0.000409195980039,-2.67654479136e-08,-2.11507834112e-06,-5.59984886816e-08,0.0022957315147,0.999997364803,1e-05,0.0,0.0,0.0,0.0,0.0,0.0,1e-05,0.0,0.0,0.0,0.0,0.0,0.0,1e+12,0.0,0.0,0.0,0.0,0.0,0.0,1e+12,0.0,0.0,0.0,0.0,0.0,0.0,1e+12,0.0,0.0,0.0,0.0,0.0,0.0,0.001,1.21798188617e-05,-1.84270037094e-05,0.0,0.0,0.0,7.57084941104e-05,0.0,0.0,0.0,0.0,0.0,0.0,0.0,0.0,0.0,0.0,0.0,0.0,0.0,0.0,0.0,0.0,0.0,0.0,0.0,0.0,0.0,0.0,0.0,0.0,0.0,0.0,0.0,0.0,0.0,0.0,0.0,0.0,0.0,0.0,0.0,0.0
59097000000,12813,59097000000,robotros_test/odom,robotros_test/chassis,0.00332614127632,0.000408846042325,-2.67654480524e-08,-2.11507832098e-06,-5.60025635469e-08,0.00229765782369,0.999997360379,1e-05,0.0,0.0,0.0,0.0,0.0,0.0,1e-05,0.0,0.0,0.0,0.0,0.0,0.0,1e+12,0.0,0.0,0.0,0.0,0.0,0.0,1e+12,0.0,0.0,0.0,0.0,0.0,0.0,1e+12,0.0,0.0,0.0,0.0,0.0,0.0,0.001,1.21798191673e-05,-1.84270050162e-05,0.0,0.0,0.0,7.57085354379e-05,0.0,0.0,0.0,0.0,0.0,0.0,0.0,0.0,0.0,0.0,0.0,0.0,0.0,0.0,0.0,0.0,0.0,0.0,0.0,0.0,0.0,0.0,0.0,0.0,0.0,0.0,0.0,0.0,0.0,0.0,0.0,0.0,0.0,0.0,0.0,0.0
59150000000,12814,59150000000,robotros_test/odom,robotros_test/chassis,0.00332699690511,0.000408496107864,-2.67654481911e-08,-2.11507830075e-06,-5.60066383979e-08,0.00229958413371,0.999997355951,1e-05,0.0,0.0,0.0,0.0,0.0,0.0,1e-05,0.0,0.0,0.0,0.0,0.0,0.0,1e+12,0.0,0.0,0.0,0.0,0.0,0.0,1e+12,0.0,0.0,0.0,0.0,0.0,0.0,1e+12,0.0,0.0,0.0,0.0,0.0,0.0,0.001,1.21798194835e-05,-1.84270063202e-05,0.0,0.0,0.0,7.57085767337e-05,0.0,0.0,0.0,0.0,0.0,0.0,0.0,0.0,0.0,0.0,0.0,0.0,0.0,0.0,0.0,0.0,0.0,0.0,0.0,0.0,0.0,0.0,0.0,0.0,0.0,0.0,0.0,0.0,0.0,0.0,0.0,0.0,0.0,0.0,0.0,0.0
59200000000,12815,59200000000,robotros_test/odom,robotros_test/chassis,0.00332785253521,0.000408146176656,-2.67654483854e-08,-2.11507828049e-06,-5.60107132338e-08,0.00230151044476,0.999997351519,1e-05,0.0,0.0,0.0,0.0,0.0,0.0,1e-05,0.0,0.0,0.0,0.0,0.0,0.0,1e+12,0.0,0.0,0.0,0.0,0.0,0.0,1e+12,0.0,0.0,0.0,0.0,0.0,0.0,1e+12,0.0,0.0,0.0,0.0,0.0,0.0,0.001,1.21798190741e-05,-1.84270065263e-05,0.0,0.0,0.0,7.57086179343e-05,0.0,0.0,0.0,0.0,0.0,0.0,0.0,0.0,0.0,0.0,0.0,0.0,0.0,0.0,0.0,0.0,0.0,0.0,0.0,0.0,0.0,0.0,0.0,0.0,0.0,0.0,0.0,0.0,0.0,0.0,0.0,0.0,0.0,0.0,0.0,0.0
59250000000,12816,59250000000,robotros_test/odom,robotros_test/chassis,0.00332870816662,0.000407796248701,-2.67654485242e-08,-2.11507826032e-06,-5.6014788027e-08,0.00230343675683,0.999997347084,1e-05,0.0,0.0,0.0,0.0,0.0,0.0,1e-05,0.0,0.0,0.0,0.0,0.0,0.0,1e+12,0.0,0.0,0.0,0.0,0.0,0.0,1e+12,0.0,0.0,0.0,0.0,0.0,0.0,1e+12,0.0,0.0,0.0,0.0,0.0,0.0,0.001,1.21798193908e-05,-1.84270078291e-05,0.0,0.0,0.0,7.57086592705e-05,0.0,0.0,0.0,0.0,0.0,0.0,0.0,0.0,0.0,0.0,0.0,0.0,0.0,0.0,0.0,0.0,0.0,0.0,0.0,0.0,0.0,0.0,0.0,0.0,0.0,0.0,0.0,0.0,0.0,0.0,0.0,0.0,0.0,0.0,0.0,0.0
59300000000,12817,59300000000,robotros_test/odom,robotros_test/chassis,0.00332956379933,0.000407446323998,-2.6765448663e-08,-2.11507824007e-06,-5.60188629055e-08,0.00230536306993,0.999997342645,1e-05,0.0,0.0,0.0,0.0,0.0,0.0,1e-05,0.0,0.0,0.0,0.0,0.0,0.0,1e+12,0.0,0.0,0.0,0.0,0.0,0.0,1e+12,0.0,0.0,0.0,0.0,0.0,0.0,1e+12,0.0,0.0,0.0,0.0,0.0,0.0,0.001,1.2179819706e-05,-1.84270091439e-05,0.0,0.0,0.0,7.57087004963e-05,0.0,0.0,0.0,0.0,0.0,0.0,0.0,0.0,0.0,0.0,0.0,0.0,0.0,0.0,0.0,0.0,0.0,0.0,0.0,0.0,0.0,0.0,0.0,0.0,0.0,0.0,0.0,0.0,0.0,0.0,0.0,0.0,0.0,0.0,0.0,0.0
59350000000,12818,59350000000,robotros_test/odom,robotros_test/chassis,0.00333041943335,0.000407096402549,-2.67654488018e-08,-2.11507821994e-06,-5.60229376695e-08,0.00230728938405,0.999997338202,1e-05,0.0,0.0,0.0,0.0,0.0,0.0,1e-05,0.0,0.0,0.0,0.0,0.0,0.0,1e+12,0.0,0.0,0.0,0.0,0.0,0.0,1e+12,0.0,0.0,0.0,0.0,0.0,0.0,1e+12,0.0,0.0,0.0,0.0,0.0,0.0,0.001,1.21798192952e-05,-1.84270093537e-05,0.0,0.0,0.0,7.57087418491e-05,0.0,0.0,0.0,0.0,0.0,0.0,0.0,0.0,0.0,0.0,0.0,0.0,0.0,0.0,0.0,0.0,0.0,0.0,0.0,0.0,0.0,0.0,0.0,0.0,0.0,0.0,0.0,0.0,0.0,0.0,0.0,0.0,0.0,0.0,0.0,0.0
59400000000,12819,59400000000,robotros_test/odom,robotros_test/chassis,0.00333127506867,0.000406746484353,-2.67654489405e-08,-2.11507819969e-06,-5.60270125098e-08,0.0023092156992,0.999997333756,1e-05,0.0,0.0,0.0,0.0,0.0,0.0,1e-05,0.0,0.0,0.0,0.0,0.0,0.0,1e+12,0.0,0.0,0.0,0.0,0.0,0.0,1e+12,0.0,0.0,0.0,0.0,0.0,0.0,1e+12,0.0,0.0,0.0,0.0,0.0,0.0,0.001,1.21798196061e-05,-1.84270106647e-05,0.0,0.0,0.0,7.57087831272e-05,0.0,0.0,0.0,0.0,0.0,0.0,0.0,0.0,0.0,0.0,0.0,0.0,0.0,0.0,0.0,0.0,0.0,0.0,0.0,0.0,0.0,0.0,0.0,0.0,0.0,0.0,0.0,0.0,0.0,0.0,0.0,0.0,0.0,0.0,0.0,0.0
59450000000,12820,59450000000,robotros_test/odom,robotros_test/chassis,0.0033321307053,0.00040639656941,-2.67654491626e-08,-2.11507817948e-06,-5.60310874229e-08,0.00231114201537,0.999997329305,1e-05,0.0,0.0,0.0,0.0,0.0,0.0,1e-05,0.0,0.0,0.0,0.0,0.0,0.0,1e+12,0.0,0.0,0.0,0.0,0.0,0.0,1e+12,0.0,0.0,0.0,0.0,0.0,0.0,1e+12,0.0,0.0,0.0,0.0,0.0,0.0,0.001,1.21798199306e-05,-1.84270119568e-05,0.0,0.0,0.0,7.57088243563e-05,0.0,0.0,0.0,0.0,0.0,0.0,0.0,0.0,0.0,0.0,0.0,0.0,0.0,0.0,0.0,0.0,0.0,0.0,0.0,0.0,0.0,0.0,0.0,0.0,0.0,0.0,0.0,0.0,0.0,0.0,0.0,0.0,0.0,0.0,0.0,0.0
59500000000,12821,59500000000,robotros_test/odom,robotros_test/chassis,0.00333298634324,0.00040604665772,-2.67654493291e-08,-2.11507815922e-06,-5.60351622041e-08,0.00231306833257,0.999997324852,1e-05,0.0,0.0,0.0,0.0,0.0,0.0,1e-05,0.0,0.0,0.0,0.0,0.0,0.0,1e+12,0.0,0.0,0.0,0.0,0.0,0.0,1e+12,0.0,0.0,0.0,0.0,0.0,0.0,1e+12,0.0,0.0,0.0,0.0,0.0,0.0,0.001,1.2179819509e-05,-1.84270121863e-05,0.0,0.0,0.0,7.57088656944e-05,0.0,0.0,0.0,0.0,0.0,0.0,0.0,0.0,0.0,0.0,0.0,0.0,0.0,0.0,0.0,0.0,0.0,0.0,0.0,0.0,0.0,0.0,0.0,0.0,0.0,0.0,0.0,0.0,0.0,0.0,0.0,0.0,0.0,0.0,0.0,0.0
59550000000,12822,59550000000,robotros_test/odom,robotros_test/chassis,0.00333384198249,0.000405696749283,-2.67654494679e-08,-2.11507813899e-06,-5.60392370704e-08,0.0023149946508,0.999997320394,1e-05,0.0,0.0,0.0,0.0,0.0,0.0,1e-05,0.0,0.0,0.0,0.0,0.0,0.0,1e+12,0.0,0.0,0.0,0.0,0.0,0.0,1e+12,0.0,0.0,0.0,0.0,0.0,0.0,1e+12,0.0,0.0,0.0,0.0,0.0,0.0,0.001,1.21798198389e-05,-1.84270134848e-05,0.0,0.0,0.0,7.57089069901e-05,0.0,0.0,0.0,0.0,0.0,0.0,0.0,0.0,0.0,0.0,0.0,0.0,0.0,0.0,0.0,0.0,0.0,0.0,0.0,0.0,0.0,0.0,0.0,0.0,0.0,0.0,0.0,0.0,0.0,0.0,0.0,0.0,0.0,0.0,0.0,0.0
59600000000,12823,59600000000,robotros_test/odom,robotros_test/chassis,0.00333469762304,0.000405346844099,-2.67654496067e-08,-2.11507811874e-06,-5.60433119172e-08,0.00231692097005,0.999997315933,1e-05,0.0,0.0,0.0,0.0,0.0,0.0,1e-05,0.0,0.0,0.0,0.0,0.0,0.0,1e+12,0.0,0.0,0.0,0.0,0.0,0.0,1e+12,0.0,0.0,0.0,0.0,0.0,0.0,1e+12,0.0,0.0,0.0,0.0,0.0,0.0,0.001,1.21798201486e-05,-1.84270147988e-05,0.0,0.0,0.0,7.5708948298e-05,0.0,0.0,0.0,0.0,0.0,0.0,0.0,0.0,0.0,0.0,0.0,0.0,0.0,0.0,0.0,0.0,0.0,0.0,0.0,0.0,0.0,0.0,0.0,0.0,0.0,0.0,0.0,0.0,0.0,0.0,0.0,0.0,0.0,0.0,0.0,0.0
59650000000,12824,59650000000,robotros_test/odom,robotros_test/chassis,0.0033355532649,0.000404996942168,-2.67654497454e-08,-2.11507809844e-06,-5.60473868328e-08,0.00231884729033,0.999997311468,1e-05,0.0,0.0,0.0,0.0,0.0,0.0,1e-05,0.0,0.0,0.0,0.0,0.0,0.0,1e+12,0.0,0.0,0.0,0.0,0.0,0.0,1e+12,0.0,0.0,0.0,0.0,0.0,0.0,1e+12,0.0,0.0,0.0,0.0,0.0,0.0,0.001,1.21798204716e-05,-1.8427016099e-05,0.0,0.0,0.0,7.57089895464e-05,0.0,0.0,0.0,0.0,0.0,0.0,0.0,0.0,0.0,0.0,0.0,0.0,0.0,0.0,0.0,0.0,0.0,0.0,0.0,0.0,0.0,0.0,0.0,0.0,0.0,0.0,0.0,0.0,0.0,0.0,0.0,0.0,0.0,0.0,0.0,0.0
59700000000,12825,59700000000,robotros_test/odom,robotros_test/chassis,0.00333640890807,0.00040464704349,-2.6765449912e-08,-2.11507807819e-06,-5.60514616346e-08,0.00232077361163,0.999997306999,1e-05,0.0,0.0,0.0,0.0,0.0,0.0,1e-05,0.0,0.0,0.0,0.0,0.0,0.0,1e+12,0.0,0.0,0.0,0.0,0.0,0.0,1e+12,0.0,0.0,0.0,0.0,0.0,0.0,1e+12,0.0,0.0,0.0,0.0,0.0,0.0,0.001,1.21798200538e-05,-1.84270163188e-05,0.0,0.0,0.0,7.57090308887e-05,0.0,0.0,0.0,0.0,0.0,0.0,0.0,0.0,0.0,0.0,0.0,0.0,0.0,0.0,0.0,0.0,0.0,0.0,0.0,0.0,0.0,0.0,0.0,0.0,0.0,0.0,0.0,0.0,0.0,0.0,0.0,0.0,0.0,0.0,0.0,0.0
59750000000,12826,59750000000,robotros_test/odom,robotros_test/chassis,0.00333726455254,0.000404297148066,-2.6765450023e-08,-2.11507805784e-06,-5.60555365029e-08,0.00232269993396,0.999997302527,1e-05,0.0,0.0,0.0,0.0,0.0,0.0,1e-05,0.0,0.0,0.0,0.0,0.0,0.0,1e+12,0.0,0.0,0.0,0.0,0.0,0.0,1e+12,0.0,0.0,0.0,0.0,0.0,0.0,1e+12,0.0,0.0,0.0,0.0,0.0,0.0,0.001,1.21798203782e-05,-1.84270176287e-05,0.0,0.0,0.0,7.57090721267e-05,0.0,0.0,0.0,0.0,0.0,0.0,0.0,0.0,0.0,0.0,0.0,0.0,0.0,0.0,0.0,0.0,0.0,0.0,0.0,0.0,0.0,0.0,0.0,0.0,0.0,0.0,0.0,0.0,0.0,0.0,0.0,0.0,0.0,0.0,0.0,0.0
59800000000,12827,59800000000,robotros_test/odom,robotros_test/chassis,0.00333812019832,0.000403947255894,-2.67654501895e-08,-2.11507803757e-06,-5.60596113471e-08,0.00232462625731,0.99999729805,1e-05,0.0,0.0,0.0,0.0,0.0,0.0,1e-05,0.0,0.0,0.0,0.0,0.0,0.0,1e+12,0.0,0.0,0.0,0.0,0.0,0.0,1e+12,0.0,0.0,0.0,0.0,0.0,0.0,1e+12,0.0,0.0,0.0,0.0,0.0,0.0,0.001,1.21798206928e-05,-1.8427018926e-05,0.0,0.0,0.0,7.57091134294e-05,0.0,0.0,0.0,0.0,0.0,0.0,0.0,0.0,0.0,0.0,0.0,0.0,0.0,0.0,0.0,0.0,0.0,0.0,0.0,0.0,0.0,0.0,0.0,0.0,0.0,0.0,0.0,0.0,0.0,0.0,0.0,0.0,0.0,0.0,0.0,0.0
59850000000,12828,59850000000,robotros_test/odom,robotros_test/chassis,0.00333897584541,0.000403597366975,-2.67654503283e-08,-2.11507801727e-06,-5.6063686264e-08,0.00232655258169,0.999997293571,1e-05,0.0,0.0,0.0,0.0,0.0,0.0,1e-05,0.0,0.0,0.0,0.0,0.0,0.0,1e+12,0.0,0.0,0.0,0.0,0.0,0.0,1e+12,0.0,0.0,0.0,0.0,0.0,0.0,1e+12,0.0,0.0,0.0,0.0,0.0,0.0,0.001,1.21798202856e-05,-1.84270191421e-05,0.0,0.0,0.0,7.57091546815e-05,0.0,0.0,0.0,0.0,0.0,0.0,0.0,0.0,0.0,0.0,0.0,0.0,0.0,0.0,0.0,0.0,0.0,0.0,0.0,0.0,0.0,0.0,0.0,0.0,0.0,0.0,0.0,0.0,0.0,0.0,0.0,0.0,0.0,0.0,0.0,0.0
59899000000,12829,59899000000,robotros_test/odom,robotros_test/chassis,0.0033398314938,0.00040324748131,-2.67654505226e-08,-2.11507799704e-06,-5.60677610613e-08,0.0023284789071,0.999997289087,1e-05,0.0,0.0,0.0,0.0,0.0,0.0,1e-05,0.0,0.0,0.0,0.0,0.0,0.0,1e+12,0.0,0.0,0.0,0.0,0.0,0.0,1e+12,0.0,0.0,0.0,0.0,0.0,0.0,1e+12,0.0,0.0,0.0,0.0,0.0,0.0,0.001,1.21798206078e-05,-1.84270204525e-05,0.0,0.0,0.0,7.57091959583e-05,0.0,0.0,0.0,0.0,0.0,0.0,0.0,0.0,0.0,0.0,0.0,0.0,0.0,0.0,0.0,0.0,0.0,0.0,0.0,0.0,0.0,0.0,0.0,0.0,0.0,0.0,0.0,0.0,0.0,0.0,0.0,0.0,0.0,0.0,0.0,0.0
59950000000,12830,59950000000,robotros_test/odom,robotros_test/chassis,0.0033406871435,0.000402897598897,-2.67654506614e-08,-2.11507797672e-06,-5.60718359454e-08,0.00233040523353,0.9999972846,1e-05,0.0,0.0,0.0,0.0,0.0,0.0,1e-05,0.0,0.0,0.0,0.0,0.0,0.0,1e+12,0.0,0.0,0.0,0.0,0.0,0.0,1e+12,0.0,0.0,0.0,0.0,0.0,0.0,1e+12,0.0,0.0,0.0,0.0,0.0,0.0,0.001,1.21798209304e-05,-1.84270217525e-05,0.0,0.0,0.0,7.57092372531e-05,0.0,0.0,0.0,0.0,0.0,0.0,0.0,0.0,0.0,0.0,0.0,0.0,0.0,0.0,0.0,0.0,0.0,0.0,0.0,0.0,0.0,0.0,0.0,0.0,0.0,0.0,0.0,0.0,0.0,0.0,0.0,0.0,0.0,0.0,0.0,0.0
60000000000,12831,60000000000,robotros_test/odom,robotros_test/chassis,0.0033415427945,0.000402547719738,-2.67654508002e-08,-2.11507795633e-06,-5.60759108018e-08,0.00233233156099,0.999997280109,1e-05,0.0,0.0,0.0,0.0,0.0,0.0,1e-05,0.0,0.0,0.0,0.0,0.0,0.0,1e+12,0.0,0.0,0.0,0.0,0.0,0.0,1e+12,0.0,0.0,0.0,0.0,0.0,0.0,1e+12,0.0,0.0,0.0,0.0,0.0,0.0,0.001,1.21798205129e-05,-1.84270219753e-05,0.0,0.0,0.0,7.57092785371e-05,0.0,0.0,0.0,0.0,0.0,0.0,0.0,0.0,0.0,0.0,0.0,0.0,0.0,0.0,0.0,0.0,0.0,0.0,0.0,0.0,0.0,0.0,0.0,0.0,0.0,0.0,0.0,0.0,0.0,0.0,0.0,0.0,0.0,0.0,0.0,0.0
60050000000,12832,60050000000,robotros_test/odom,robotros_test/chassis,0.00334239844682,0.000402197843832,-2.67654509667e-08,-2.11507793607e-06,-5.60799857355e-08,0.00233425788947,0.999997275614,1e-05,0.0,0.0,0.0,0.0,0.0,0.0,1e-05,0.0,0.0,0.0,0.0,0.0,0.0,1e+12,0.0,0.0,0.0,0.0,0.0,0.0,1e+12,0.0,0.0,0.0,0.0,0.0,0.0,1e+12,0.0,0.0,0.0,0.0,0.0,0.0,0.001,1.2179820829e-05,-1.84270232883e-05,0.0,0.0,0.0,7.57093198505e-05,0.0,0.0,0.0,0.0,0.0,0.0,0.0,0.0,0.0,0.0,0.0,0.0,0.0,0.0,0.0,0.0,0.0,0.0,0.0,0.0,0.0,0.0,0.0,0.0,0.0,0.0,0.0,0.0,0.0,0.0,0.0,0.0,0.0,0.0,0.0,0.0
60100000000,12833,60100000000,robotros_test/odom,robotros_test/chassis,0.00334325410044,0.000401847971179,-2.67654511332e-08,-2.11507791572e-06,-5.60840605389e-08,0.00233618421898,0.999997271116,1e-05,0.0,0.0,0.0,0.0,0.0,0.0,1e-05,0.0,0.0,0.0,0.0,0.0,0.0,1e+12,0.0,0.0,0.0,0.0,0.0,0.0,1e+12,0.0,0.0,0.0,0.0,0.0,0.0,1e+12,0.0,0.0,0.0,0.0,0.0,0.0,0.001,1.21798211624e-05,-1.84270245923e-05,0.0,0.0,0.0,7.57093611146e-05,0.0,0.0,0.0,0.0,0.0,0.0,0.0,0.0,0.0,0.0,0.0,0.0,0.0,0.0,0.0,0.0,0.0,0.0,0.0,0.0,0.0,0.0,0.0,0.0,0.0,0.0,0.0,0.0,0.0,0.0,0.0,0.0,0.0,0.0,0.0,0.0
60150000000,12834,60150000000,robotros_test/odom,robotros_test/chassis,0.00334410975536,0.000401498101779,-2.6765451272e-08,-2.11507789535e-06,-5.60881354179e-08,0.00233811054951,0.999997266614,1e-05,0.0,0.0,0.0,0.0,0.0,0.0,1e-05,0.0,0.0,0.0,0.0,0.0,0.0,1e+12,0.0,0.0,0.0,0.0,0.0,0.0,1e+12,0.0,0.0,0.0,0.0,0.0,0.0,1e+12,0.0,0.0,0.0,0.0,0.0,0.0,0.001,1.21798214819e-05,-1.84270259026e-05,0.0,0.0,0.0,7.57094024269e-05,0.0,0.0,0.0,0.0,0.0,0.0,0.0,0.0,0.0,0.0,0.0,0.0,0.0,0.0,0.0,0.0,0.0,0.0,0.0,0.0,0.0,0.0,0.0,0.0,0.0,0.0,0.0,0.0,0.0,0.0,0.0,0.0,0.0,0.0,0.0,0.0
60200000000,12835,60200000000,robotros_test/odom,robotros_test/chassis,0.0033449654116,0.000401148235632,-2.67654514385e-08,-2.11507787498e-06,-5.60922102846e-08,0.00234003688107,0.999997262108,1e-05,0.0,0.0,0.0,0.0,0.0,0.0,1e-05,0.0,0.0,0.0,0.0,0.0,0.0,1e+12,0.0,0.0,0.0,0.0,0.0,0.0,1e+12,0.0,0.0,0.0,0.0,0.0,0.0,1e+12,0.0,0.0,0.0,0.0,0.0,0.0,0.001,1.21798210696e-05,-1.84270261247e-05,0.0,0.0,0.0,7.57094436933e-05,0.0,0.0,0.0,0.0,0.0,0.0,0.0,0.0,0.0,0.0,0.0,0.0,0.0,0.0,0.0,0.0,0.0,0.0,0.0,0.0,0.0,0.0,0.0,0.0,0.0,0.0,0.0,0.0,0.0,0.0,0.0,0.0,0.0,0.0,0.0,0.0
60250000000,12836,60250000000,robotros_test/odom,robotros_test/chassis,0.00334582106914,0.000400798372738,-2.67654515773e-08,-2.11507785465e-06,-5.60962852226e-08,0.00234196321366,0.999997257598,1e-05,0.0,0.0,0.0,0.0,0.0,0.0,1e-05,0.0,0.0,0.0,0.0,0.0,0.0,1e+12,0.0,0.0,0.0,0.0,0.0,0.0,1e+12,0.0,0.0,0.0,0.0,0.0,0.0,1e+12,0.0,0.0,0.0,0.0,0.0,0.0,0.001,1.217982138e-05,-1.84270274384e-05,0.0,0.0,0.0,7.57094849705e-05,0.0,0.0,0.0,0.0,0.0,0.0,0.0,0.0,0.0,0.0,0.0,0.0,0.0,0.0,0.0,0.0,0.0,0.0,0.0,0.0,0.0,0.0,0.0,0.0,0.0,0.0,0.0,0.0,0.0,0.0,0.0,0.0,0.0,0.0,0.0,0.0
60300000000,12837,60300000000,robotros_test/odom,robotros_test/chassis,0.00334667672798,0.000400448513098,-2.67654517161e-08,-2.1150778343e-06,-5.61003600477e-08,0.00234388954727,0.999997253085,1e-05,0.0,0.0,0.0,0.0,0.0,0.0,1e-05,0.0,0.0,0.0,0.0,0.0,0.0,1e+12,0.0,0.0,0.0,0.0,0.0,0.0,1e+12,0.0,0.0,0.0,0.0,0.0,0.0,1e+12,0.0,0.0,0.0,0.0,0.0,0.0,0.001,1.21798217066e-05,-1.84270287517e-05,0.0,0.0,0.0,7.57095263044e-05,0.0,0.0,0.0,0.0,0.0,0.0,0.0,0.0,0.0,0.0,0.0,0.0,0.0,0.0,0.0,0.0,0.0,0.0,0.0,0.0,0.0,0.0,0.0,0.0,0.0,0.0,0.0,0.0,0.0,0.0,0.0,0.0,0.0,0.0,0.0,0.0
60350000000,12838,60350000000,robotros_test/odom,robotros_test/chassis,0.00334753238813,0.00040009865671,-2.67654518549e-08,-2.11507781388e-06,-5.61044350113e-08,0.0023458158819,0.999997248568,1e-05,0.0,0.0,0.0,0.0,0.0,0.0,1e-05,0.0,0.0,0.0,0.0,0.0,0.0,1e+12,0.0,0.0,0.0,0.0,0.0,0.0,1e+12,0.0,0.0,0.0,0.0,0.0,0.0,1e+12,0.0,0.0,0.0,0.0,0.0,0.0,0.001,1.21798212898e-05,-1.842702896e-05,0.0,0.0,0.0,7.57095675477e-05,0.0,0.0,0.0,0.0,0.0,0.0,0.0,0.0,0.0,0.0,0.0,0.0,0.0,0.0,0.0,0.0,0.0,0.0,0.0,0.0,0.0,0.0,0.0,0.0,0.0,0.0,0.0,0.0,0.0,0.0,0.0,0.0,0.0,0.0,0.0,0.0
60400000000,12839,60400000000,robotros_test/odom,robotros_test/chassis,0.00334838804959,0.000399748803576,-2.67654520214e-08,-2.11507779352e-06,-5.61085098657e-08,0.00234774221756,0.999997244047,1e-05,0.0,0.0,0.0,0.0,0.0,0.0,1e-05,0.0,0.0,0.0,0.0,0.0,0.0,1e+12,0.0,0.0,0.0,0.0,0.0,0.0,1e+12,0.0,0.0,0.0,0.0,0.0,0.0,1e+12,0.0,0.0,0.0,0.0,0.0,0.0,0.001,1.21798216203e-05,-1.84270302764e-05,0.0,0.0,0.0,7.57096088311e-05,0.0,0.0,0.0,0.0,0.0,0.0,0.0,0.0,0.0,0.0,0.0,0.0,0.0,0.0,0.0,0.0,0.0,0.0,0.0,0.0,0.0,0.0,0.0,0.0,0.0,0.0,0.0,0.0,0.0,0.0,0.0,0.0,0.0,0.0,0.0,0.0
60450000000,12840,60450000000,robotros_test/odom,robotros_test/chassis,0.00334924371236,0.000399398953695,-2.67654521879e-08,-2.11507777313e-06,-5.61125847967e-08,0.00234966855425,0.999997239523,1e-05,0.0,0.0,0.0,0.0,0.0,0.0,1e-05,0.0,0.0,0.0,0.0,0.0,0.0,1e+12,0.0,0.0,0.0,0.0,0.0,0.0,1e+12,0.0,0.0,0.0,0.0,0.0,0.0,1e+12,0.0,0.0,0.0,0.0,0.0,0.0,0.001,1.21798219274e-05,-1.8427031601e-05,0.0,0.0,0.0,7.57096501659e-05,0.0,0.0,0.0,0.0,0.0,0.0,0.0,0.0,0.0,0.0,0.0,0.0,0.0,0.0,0.0,0.0,0.0,0.0,0.0,0.0,0.0,0.0,0.0,0.0,0.0,0.0,0.0,0.0,0.0,0.0,0.0,0.0,0.0,0.0,0.0,0.0
60500000000,12841,60500000000,robotros_test/odom,robotros_test/chassis,0.00335009937643,0.000399049107067,-2.6765452299e-08,-2.11507775273e-06,-5.61166596209e-08,0.00235159489197,0.999997234995,1e-05,0.0,0.0,0.0,0.0,0.0,0.0,1e-05,0.0,0.0,0.0,0.0,0.0,0.0,1e+12,0.0,0.0,0.0,0.0,0.0,0.0,1e+12,0.0,0.0,0.0,0.0,0.0,0.0,1e+12,0.0,0.0,0.0,0.0,0.0,0.0,0.001,1.21798215315e-05,-1.84270318082e-05,0.0,0.0,0.0,7.57096913984e-05,0.0,0.0,0.0,0.0,0.0,0.0,0.0,0.0,0.0,0.0,0.0,0.0,0.0,0.0,0.0,0.0,0.0,0.0,0.0,0.0,0.0,0.0,0.0,0.0,0.0,0.0,0.0,0.0,0.0,0.0,0.0,0.0,0.0,0.0,0.0,0.0
60550000000,12842,60550000000,robotros_test/odom,robotros_test/chassis,0.00335095504181,0.000398699263692,-2.67654524377e-08,-2.11507773229e-06,-5.61207345171e-08,0.0023535212307,0.999997230463,1e-05,0.0,0.0,0.0,0.0,0.0,0.0,1e-05,0.0,0.0,0.0,0.0,0.0,0.0,1e+12,0.0,0.0,0.0,0.0,0.0,0.0,1e+12,0.0,0.0,0.0,0.0,0.0,0.0,1e+12,0.0,0.0,0.0,0.0,0.0,0.0,0.001,1.21798218459e-05,-1.84270331231e-05,0.0,0.0,0.0,7.57097327413e-05,0.0,0.0,0.0,0.0,0.0,0.0,0.0,0.0,0.0,0.0,0.0,0.0,0.0,0.0,0.0,0.0,0.0,0.0,0.0,0.0,0.0,0.0,0.0,0.0,0.0,0.0,0.0,0.0,0.0,0.0,0.0,0.0,0.0,0.0,0.0,0.0
60600000000,12843,60600000000,robotros_test/odom,robotros_test/chassis,0.0033518107085,0.000398349423571,-2.6765452632e-08,-2.11507771195e-06,-5.61248094845e-08,0.00235544757047,0.999997225927,1e-05,0.0,0.0,0.0,0.0,0.0,0.0,1e-05,0.0,0.0,0.0,0.0,0.0,0.0,1e+12,0.0,0.0,0.0,0.0,0.0,0.0,1e+12,0.0,0.0,0.0,0.0,0.0,0.0,1e+12,0.0,0.0,0.0,0.0,0.0,0.0,0.001,1.21798221576e-05,-1.84270344478e-05,0.0,0.0,0.0,7.57097740219e-05,0.0,0.0,0.0,0.0,0.0,0.0,0.0,0.0,0.0,0.0,0.0,0.0,0.0,0.0,0.0,0.0,0.0,0.0,0.0,0.0,0.0,0.0,0.0,0.0,0.0,0.0,0.0,0.0,0.0,0.0,0.0,0.0,0.0,0.0,0.0,0.0
60650000000,12844,60650000000,robotros_test/odom,robotros_test/chassis,0.00335266637649,0.000397999586702,-2.6765452743e-08,-2.11507769148e-06,-5.61288843395e-08,0.00235737391126,0.999997221388,1e-05,0.0,0.0,0.0,0.0,0.0,0.0,1e-05,0.0,0.0,0.0,0.0,0.0,0.0,1e+12,0.0,0.0,0.0,0.0,0.0,0.0,1e+12,0.0,0.0,0.0,0.0,0.0,0.0,1e+12,0.0,0.0,0.0,0.0,0.0,0.0,0.001,1.21798225022e-05,-1.84270357487e-05,0.0,0.0,0.0,7.57098152656e-05,0.0,0.0,0.0,0.0,0.0,0.0,0.0,0.0,0.0,0.0,0.0,0.0,0.0,0.0,0.0,0.0,0.0,0.0,0.0,0.0,0.0,0.0,0.0,0.0,0.0,0.0,0.0,0.0,0.0,0.0,0.0,0.0,0.0,0.0,0.0,0.0
60700000000,12845,60700000000,robotros_test/odom,robotros_test/chassis,0.00335352204579,0.000397649753087,-2.67654529373e-08,-2.1150776711e-06,-5.61329592541e-08,0.00235930025307,0.999997216845,1e-05,0.0,0.0,0.0,0.0,0.0,0.0,1e-05,0.0,0.0,0.0,0.0,0.0,0.0,1e+12,0.0,0.0,0.0,0.0,0.0,0.0,1e+12,0.0,0.0,0.0,0.0,0.0,0.0,1e+12,0.0,0.0,0.0,0.0,0.0,0.0,0.001,1.21798220845e-05,-1.84270359676e-05,0.0,0.0,0.0,7.57098565755e-05,0.0,0.0,0.0,0.0,0.0,0.0,0.0,0.0,0.0,0.0,0.0,0.0,0.0,0.0,0.0,0.0,0.0,0.0,0.0,0.0,0.0,0.0,0.0,0.0,0.0,0.0,0.0,0.0,0.0,0.0,0.0,0.0,0.0,0.0,0.0,0.0
60750000000,12846,60750000000,robotros_test/odom,robotros_test/chassis,0.00335437771639,0.000397299922725,-2.67654530761e-08,-2.11507765063e-06,-5.61370341639e-08,0.00236122659591,0.999997212298,1e-05,0.0,0.0,0.0,0.0,0.0,0.0,1e-05,0.0,0.0,0.0,0.0,0.0,0.0,1e+12,0.0,0.0,0.0,0.0,0.0,0.0,1e+12,0.0,0.0,0.0,0.0,0.0,0.0,1e+12,0.0,0.0,0.0,0.0,0.0,0.0,0.001,1.21798224112e-05,-1.84270372814e-05,0.0,0.0,0.0,7.57098978735e-05,0.0,0.0,0.0,0.0,0.0,0.0,0.0,0.0,0.0,0.0,0.0,0.0,0.0,0.0,0.0,0.0,0.0,0.0,0.0,0.0,0.0,0.0,0.0,0.0,0.0,0.0,0.0,0.0,0.0,0.0,0.0,0.0,0.0,0.0,0.0,0.0
60800000000,12847,60800000000,robotros_test/odom,robotros_test/chassis,0.00335523338831,0.000396950095616,-2.67654532426e-08,-2.11507763021e-06,-5.61411090566e-08,0.00236315293978,0.999997207748,1e-05,0.0,0.0,0.0,0.0,0.0,0.0,1e-05,0.0,0.0,0.0,0.0,0.0,0.0,1e+12,0.0,0.0,0.0,0.0,0.0,0.0,1e+12,0.0,0.0,0.0,0.0,0.0,0.0,1e+12,0.0,0.0,0.0,0.0,0.0,0.0,0.001,1.21798227306e-05,-1.84270385993e-05,0.0,0.0,0.0,7.57099391243e-05,0.0,0.0,0.0,0.0,0.0,0.0,0.0,0.0,0.0,0.0,0.0,0.0,0.0,0.0,0.0,0.0,0.0,0.0,0.0,0.0,0.0,0.0,0.0,0.0,0.0,0.0,0.0,0.0,0.0,0.0,0.0,0.0,0.0,0.0,0.0,0.0
60850000000,12848,60850000000,robotros_test/odom,robotros_test/chassis,0.00335608906152,0.000396600271761,-2.67654533814e-08,-2.11507760973e-06,-5.61451839223e-08,0.00236507928467,0.999997203194,1e-05,0.0,0.0,0.0,0.0,0.0,0.0,1e-05,0.0,0.0,0.0,0.0,0.0,0.0,1e+12,0.0,0.0,0.0,0.0,0.0,0.0,1e+12,0.0,0.0,0.0,0.0,0.0,0.0,1e+12,0.0,0.0,0.0,0.0,0.0,0.0,0.001,1.21798223179e-05,-1.8427038825e-05,0.0,0.0,0.0,7.5709980422e-05,0.0,0.0,0.0,0.0,0.0,0.0,0.0,0.0,0.0,0.0,0.0,0.0,0.0,0.0,0.0,0.0,0.0,0.0,0.0,0.0,0.0,0.0,0.0,0.0,0.0,0.0,0.0,0.0,0.0,0.0,0.0,0.0,0.0,0.0,0.0,0.0
60900000000,12849,60900000000,robotros_test/odom,robotros_test/chassis,0.00335694473605,0.000396250451158,-2.67654535202e-08,-2.11507758927e-06,-5.61492588664e-08,0.00236700563059,0.999997198636,1e-05,0.0,0.0,0.0,0.0,0.0,0.0,1e-05,0.0,0.0,0.0,0.0,0.0,0.0,1e+12,0.0,0.0,0.0,0.0,0.0,0.0,1e+12,0.0,0.0,0.0,0.0,0.0,0.0,1e+12,0.0,0.0,0.0,0.0,0.0,0.0,0.001,1.21798226445e-05,-1.8427040136e-05,0.0,0.0,0.0,7.57100217397e-05,0.0,0.0,0.0,0.0,0.0,0.0,0.0,0.0,0.0,0.0,0.0,0.0,0.0,0.0,0.0,0.0,0.0,0.0,0.0,0.0,0.0,0.0,0.0,0.0,0.0,0.0,0.0,0.0,0.0,0.0,0.0,0.0,0.0,0.0,0.0,0.0
60950000000,12850,60950000000,robotros_test/odom,robotros_test/chassis,0.00335780041188,0.000395900633809,-2.6765453659e-08,-2.11507756879e-06,-5.61533337597e-08,0.00236893197753,0.999997194074,1e-05,0.0,0.0,0.0,0.0,0.0,0.0,1e-05,0.0,0.0,0.0,0.0,0.0,0.0,1e+12,0.0,0.0,0.0,0.0,0.0,0.0,1e+12,0.0,0.0,0.0,0.0,0.0,0.0,1e+12,0.0,0.0,0.0,0.0,0.0,0.0,0.001,1.21798229635e-05,-1.84270414533e-05,0.0,0.0,0.0,7.57100630081e-05,0.0,0.0,0.0,0.0,0.0,0.0,0.0,0.0,0.0,0.0,0.0,0.0,0.0,0.0,0.0,0.0,0.0,0.0,0.0,0.0,0.0,0.0,0.0,0.0,0.0,0.0,0.0,0.0,0.0,0.0,0.0,0.0,0.0,0.0,0.0,0.0
61000000000,12851,61000000000,robotros_test/odom,robotros_test/chassis,0.00335865608902,0.000395550819714,-2.67654537978e-08,-2.11507754827e-06,-5.61574087326e-08,0.0023708583255,0.999997189509,1e-05,0.0,0.0,0.0,0.0,0.0,0.0,1e-05,0.0,0.0,0.0,0.0,0.0,0.0,1e+12,0.0,0.0,0.0,0.0,0.0,0.0,1e+12,0.0,0.0,0.0,0.0,0.0,0.0,1e+12,0.0,0.0,0.0,0.0,0.0,0.0,0.001,1.21798225509e-05,-1.84270416797e-05,0.0,0.0,0.0,7.57101042859e-05,0.0,0.0,0.0,0.0,0.0,0.0,0.0,0.0,0.0,0.0,0.0,0.0,0.0,0.0,0.0,0.0,0.0,0.0,0.0,0.0,0.0,0.0,0.0,0.0,0.0,0.0,0.0,0.0,0.0,0.0,0.0,0.0,0.0,0.0,0.0,0.0
61050000000,12852,61050000000,robotros_test/odom,robotros_test/chassis,0.00335951176746,0.000395201008871,-2.67654539921e-08,-2.11507752787e-06,-5.61614835958e-08,0.00237278467449,0.99999718494,1e-05,0.0,0.0,0.0,0.0,0.0,0.0,1e-05,0.0,0.0,0.0,0.0,0.0,0.0,1e+12,0.0,0.0,0.0,0.0,0.0,0.0,1e+12,0.0,0.0,0.0,0.0,0.0,0.0,1e+12,0.0,0.0,0.0,0.0,0.0,0.0,0.001,1.21798228775e-05,-1.84270429891e-05,0.0,0.0,0.0,7.57101456284e-05,0.0,0.0,0.0,0.0,0.0,0.0,0.0,0.0,0.0,0.0,0.0,0.0,0.0,0.0,0.0,0.0,0.0,0.0,0.0,0.0,0.0,0.0,0.0,0.0,0.0,0.0,0.0,0.0,0.0,0.0,0.0,0.0,0.0,0.0,0.0,0.0
61100000000,12853,61100000000,robotros_test/odom,robotros_test/chassis,0.00336036744721,0.000394851201281,-2.67654541308e-08,-2.11507750736e-06,-5.61655585357e-08,0.00237471102451,0.999997180368,1e-05,0.0,0.0,0.0,0.0,0.0,0.0,1e-05,0.0,0.0,0.0,0.0,0.0,0.0,1e+12,0.0,0.0,0.0,0.0,0.0,0.0,1e+12,0.0,0.0,0.0,0.0,0.0,0.0,1e+12,0.0,0.0,0.0,0.0,0.0,0.0,0.001,1.21798232008e-05,-1.84270443046e-05,0.0,0.0,0.0,7.57101868694e-05,0.0,0.0,0.0,0.0,0.0,0.0,0.0,0.0,0.0,0.0,0.0,0.0,0.0,0.0,0.0,0.0,0.0,0.0,0.0,0.0,0.0,0.0,0.0,0.0,0.0,0.0,0.0,0.0,0.0,0.0,0.0,0.0,0.0,0.0,0.0,0.0
61150000000,12854,61150000000,robotros_test/odom,robotros_test/chassis,0.00336122312827,0.000394501396945,-2.67654542974e-08,-2.11507748685e-06,-5.61696334718e-08,0.00237663737556,0.999997175791,1e-05,0.0,0.0,0.0,0.0,0.0,0.0,1e-05,0.0,0.0,0.0,0.0,0.0,0.0,1e+12,0.0,0.0,0.0,0.0,0.0,0.0,1e+12,0.0,0.0,0.0,0.0,0.0,0.0,1e+12,0.0,0.0,0.0,0.0,0.0,0.0,0.001,1.21798227934e-05,-1.84270445322e-05,0.0,0.0,0.0,7.57102281678e-05,0.0,0.0,0.0,0.0,0.0,0.0,0.0,0.0,0.0,0.0,0.0,0.0,0.0,0.0,0.0,0.0,0.0,0.0,0.0,0.0,0.0,0.0,0.0,0.0,0.0,0.0,0.0,0.0,0.0,0.0,0.0,0.0,0.0,0.0,0.0,0.0
61200000000,12855,61200000000,robotros_test/odom,robotros_test/chassis,0.00336207881063,0.000394151595862,-2.67654544361e-08,-2.11507746634e-06,-5.61737083611e-08,0.00237856372763,0.999997171211,1e-05,0.0,0.0,0.0,0.0,0.0,0.0,1e-05,0.0,0.0,0.0,0.0,0.0,0.0,1e+12,0.0,0.0,0.0,0.0,0.0,0.0,1e+12,0.0,0.0,0.0,0.0,0.0,0.0,1e+12,0.0,0.0,0.0,0.0,0.0,0.0,0.001,1.21798231215e-05,-1.84270458447e-05,0.0,0.0,0.0,7.57102694818e-05,0.0,0.0,0.0,0.0,0.0,0.0,0.0,0.0,0.0,0.0,0.0,0.0,0.0,0.0,0.0,0.0,0.0,0.0,0.0,0.0,0.0,0.0,0.0,0.0,0.0,0.0,0.0,0.0,0.0,0.0,0.0,0.0,0.0,0.0,0.0,0.0
61250000000,12856,61250000000,robotros_test/odom,robotros_test/chassis,0.0033629344943,0.000393801798033,-2.67654545749e-08,-2.11507744584e-06,-5.61777833274e-08,0.00238049008072,0.999997166627,1e-05,0.0,0.0,0.0,0.0,0.0,0.0,1e-05,0.0,0.0,0.0,0.0,0.0,0.0,1e+12,0.0,0.0,0.0,0.0,0.0,0.0,1e+12,0.0,0.0,0.0,0.0,0.0,0.0,1e+12,0.0,0.0,0.0,0.0,0.0,0.0,0.001,1.21798234418e-05,-1.84270471595e-05,0.0,0.0,0.0,7.5710310775e-05,0.0,0.0,0.0,0.0,0.0,0.0,0.0,0.0,0.0,0.0,0.0,0.0,0.0,0.0,0.0,0.0,0.0,0.0,0.0,0.0,0.0,0.0,0.0,0.0,0.0,0.0,0.0,0.0,0.0,0.0,0.0,0.0,0.0,0.0,0.0,0.0
61300000000,12857,61300000000,robotros_test/odom,robotros_test/chassis,0.00336379017928,0.000393452003456,-2.67654547137e-08,-2.11507742531e-06,-5.61818582758e-08,0.00238241643484,0.99999716204,1e-05,0.0,0.0,0.0,0.0,0.0,0.0,1e-05,0.0,0.0,0.0,0.0,0.0,0.0,1e+12,0.0,0.0,0.0,0.0,0.0,0.0,1e+12,0.0,0.0,0.0,0.0,0.0,0.0,1e+12,0.0,0.0,0.0,0.0,0.0,0.0,0.001,1.21798237751e-05,-1.84270484816e-05,0.0,0.0,0.0,7.57103519892e-05,0.0,0.0,0.0,0.0,0.0,0.0,0.0,0.0,0.0,0.0,0.0,0.0,0.0,0.0,0.0,0.0,0.0,0.0,0.0,0.0,0.0,0.0,0.0,0.0,0.0,0.0,0.0,0.0,0.0,0.0,0.0,0.0,0.0,0.0,0.0,0.0
61350000000,12858,61350000000,robotros_test/odom,robotros_test/chassis,0.00336464586556,0.000393102212133,-2.67654548525e-08,-2.1150774048e-06,-5.6185933197e-08,0.00238434278999,0.999997157448,1e-05,0.0,0.0,0.0,0.0,0.0,0.0,1e-05,0.0,0.0,0.0,0.0,0.0,0.0,1e+12,0.0,0.0,0.0,0.0,0.0,0.0,1e+12,0.0,0.0,0.0,0.0,0.0,0.0,1e+12,0.0,0.0,0.0,0.0,0.0,0.0,0.001,1.21798233638e-05,-1.84270487029e-05,0.0,0.0,0.0,7.57103933083e-05,0.0,0.0,0.0,0.0,0.0,0.0,0.0,0.0,0.0,0.0,0.0,0.0,0.0,0.0,0.0,0.0,0.0,0.0,0.0,0.0,0.0,0.0,0.0,0.0,0.0,0.0,0.0,0.0,0.0,0.0,0.0,0.0,0.0,0.0,0.0,0.0
61400000000,12859,61400000000,robotros_test/odom,robotros_test/chassis,0.00336550155315,0.000392752424064,-2.67654549913e-08,-2.11507738427e-06,-5.61900081193e-08,0.00238626914616,0.999997152853,1e-05,0.0,0.0,0.0,0.0,0.0,0.0,1e-05,0.0,0.0,0.0,0.0,0.0,0.0,1e+12,0.0,0.0,0.0,0.0,0.0,0.0,1e+12,0.0,0.0,0.0,0.0,0.0,0.0,1e+12,0.0,0.0,0.0,0.0,0.0,0.0,0.001,1.2179823681e-05,-1.84270500133e-05,0.0,0.0,0.0,7.57104346143e-05,0.0,0.0,0.0,0.0,0.0,0.0,0.0,0.0,0.0,0.0,0.0,0.0,0.0,0.0,0.0,0.0,0.0,0.0,0.0,0.0,0.0,0.0,0.0,0.0,0.0,0.0,0.0,0.0,0.0,0.0,0.0,0.0,0.0,0.0,0.0,0.0
61450000000,12860,61450000000,robotros_test/odom,robotros_test/chassis,0.00336635724204,0.000392402639247,-2.67654551578e-08,-2.1150773637e-06,-5.61940830066e-08,0.00238819550336,0.999997148255,1e-05,0.0,0.0,0.0,0.0,0.0,0.0,1e-05,0.0,0.0,0.0,0.0,0.0,0.0,1e+12,0.0,0.0,0.0,0.0,0.0,0.0,1e+12,0.0,0.0,0.0,0.0,0.0,0.0,1e+12,0.0,0.0,0.0,0.0,0.0,0.0,0.001,1.21798240211e-05,-1.84270513431e-05,0.0,0.0,0.0,7.57104758533e-05,0.0,0.0,0.0,0.0,0.0,0.0,0.0,0.0,0.0,0.0,0.0,0.0,0.0,0.0,0.0,0.0,0.0,0.0,0.0,0.0,0.0,0.0,0.0,0.0,0.0,0.0,0.0,0.0,0.0,0.0,0.0,0.0,0.0,0.0,0.0,0.0
61500000000,12861,61500000000,robotros_test/odom,robotros_test/chassis,0.00336721293225,0.000392052857684,-2.67654553521e-08,-2.11507734306e-06,-5.61981579582e-08,0.00239012186158,0.999997143652,1e-05,0.0,0.0,0.0,0.0,0.0,0.0,1e-05,0.0,0.0,0.0,0.0,0.0,0.0,1e+12,0.0,0.0,0.0,0.0,0.0,0.0,1e+12,0.0,0.0,0.0,0.0,0.0,0.0,1e+12,0.0,0.0,0.0,0.0,0.0,0.0,0.001,1.21798236108e-05,-1.84270515752e-05,0.0,0.0,0.0,7.57105171423e-05,0.0,0.0,0.0,0.0,0.0,0.0,0.0,0.0,0.0,0.0,0.0,0.0,0.0,0.0,0.0,0.0,0.0,0.0,0.0,0.0,0.0,0.0,0.0,0.0,0.0,0.0,0.0,0.0,0.0,0.0,0.0,0.0,0.0,0.0,0.0,0.0
61550000000,12862,61550000000,robotros_test/odom,robotros_test/chassis,0.00336806862375,0.000391703079374,-2.67654554909e-08,-2.11507732257e-06,-5.62022328885e-08,0.00239204822083,0.999997139046,1e-05,0.0,0.0,0.0,0.0,0.0,0.0,1e-05,0.0,0.0,0.0,0.0,0.0,0.0,1e+12,0.0,0.0,0.0,0.0,0.0,0.0,1e+12,0.0,0.0,0.0,0.0,0.0,0.0,1e+12,0.0,0.0,0.0,0.0,0.0,0.0,0.001,1.21798239326e-05,-1.84270528933e-05,0.0,0.0,0.0,7.57105584489e-05,0.0,0.0,0.0,0.0,0.0,0.0,0.0,0.0,0.0,0.0,0.0,0.0,0.0,0.0,0.0,0.0,0.0,0.0,0.0,0.0,0.0,0.0,0.0,0.0,0.0,0.0,0.0,0.0,0.0,0.0,0.0,0.0,0.0,0.0,0.0,0.0
61600000000,12863,61600000000,robotros_test/odom,robotros_test/chassis,0.00336892431657,0.000391353304318,-2.67654556574e-08,-2.11507730199e-06,-5.62063078938e-08,0.00239397458111,0.999997134437,1e-05,0.0,0.0,0.0,0.0,0.0,0.0,1e-05,0.0,0.0,0.0,0.0,0.0,0.0,1e+12,0.0,0.0,0.0,0.0,0.0,0.0,1e+12,0.0,0.0,0.0,0.0,0.0,0.0,1e+12,0.0,0.0,0.0,0.0,0.0,0.0,0.001,1.217982425e-05,-1.84270542143e-05,0.0,0.0,0.0,7.57105998013e-05,0.0,0.0,0.0,0.0,0.0,0.0,0.0,0.0,0.0,0.0,0.0,0.0,0.0,0.0,0.0,0.0,0.0,0.0,0.0,0.0,0.0,0.0,0.0,0.0,0.0,0.0,0.0,0.0,0.0,0.0,0.0,0.0,0.0,0.0,0.0,0.0
61650000000,12864,61650000000,robotros_test/odom,robotros_test/chassis,0.00336978001069,0.000391003532514,-2.67654558239e-08,-2.11507728145e-06,-5.621038279e-08,0.00239590094241,0.999997129823,1e-05,0.0,0.0,0.0,0.0,0.0,0.0,1e-05,0.0,0.0,0.0,0.0,0.0,0.0,1e+12,0.0,0.0,0.0,0.0,0.0,0.0,1e+12,0.0,0.0,0.0,0.0,0.0,0.0,1e+12,0.0,0.0,0.0,0.0,0.0,0.0,0.001,1.21798238481e-05,-1.84270544318e-05,0.0,0.0,0.0,7.57106410687e-05,0.0,0.0,0.0,0.0,0.0,0.0,0.0,0.0,0.0,0.0,0.0,0.0,0.0,0.0,0.0,0.0,0.0,0.0,0.0,0.0,0.0,0.0,0.0,0.0,0.0,0.0,0.0,0.0,0.0,0.0,0.0,0.0,0.0,0.0,0.0,0.0
61700000000,12865,61700000000,robotros_test/odom,robotros_test/chassis,0.00337063570612,0.000390653763964,-2.67654559072e-08,-2.11507726087e-06,-5.6214457757e-08,0.00239782730473,0.999997125206,1e-05,0.0,0.0,0.0,0.0,0.0,0.0,1e-05,0.0,0.0,0.0,0.0,0.0,0.0,1e+12,0.0,0.0,0.0,0.0,0.0,0.0,1e+12,0.0,0.0,0.0,0.0,0.0,0.0,1e+12,0.0,0.0,0.0,0.0,0.0,0.0,0.001,1.21798241714e-05,-1.84270557624e-05,0.0,0.0,0.0,7.57106823299e-05,0.0,0.0,0.0,0.0,0.0,0.0,0.0,0.0,0.0,0.0,0.0,0.0,0.0,0.0,0.0,0.0,0.0,0.0,0.0,0.0,0.0,0.0,0.0,0.0,0.0,0.0,0.0,0.0,0.0,0.0,0.0,0.0,0.0,0.0,0.0,0.0
61750000000,12866,61750000000,robotros_test/odom,robotros_test/chassis,0.00337149140285,0.000390303998668,-2.67654560737e-08,-2.11507724024e-06,-5.62185327044e-08,0.00239975366808,0.999997120585,1e-05,0.0,0.0,0.0,0.0,0.0,0.0,1e-05,0.0,0.0,0.0,0.0,0.0,0.0,1e+12,0.0,0.0,0.0,0.0,0.0,0.0,1e+12,0.0,0.0,0.0,0.0,0.0,0.0,1e+12,0.0,0.0,0.0,0.0,0.0,0.0,0.001,1.21798245147e-05,-1.84270570674e-05,0.0,0.0,0.0,7.57107235927e-05,0.0,0.0,0.0,0.0,0.0,0.0,0.0,0.0,0.0,0.0,0.0,0.0,0.0,0.0,0.0,0.0,0.0,0.0,0.0,0.0,0.0,0.0,0.0,0.0,0.0,0.0,0.0,0.0,0.0,0.0,0.0,0.0,0.0,0.0,0.0,0.0
61800000000,12867,61800000000,robotros_test/odom,robotros_test/chassis,0.00337234710089,0.000389954236625,-2.67654562403e-08,-2.11507721969e-06,-5.62226077158e-08,0.00240168003246,0.99999711596,1e-05,0.0,0.0,0.0,0.0,0.0,0.0,1e-05,0.0,0.0,0.0,0.0,0.0,0.0,1e+12,0.0,0.0,0.0,0.0,0.0,0.0,1e+12,0.0,0.0,0.0,0.0,0.0,0.0,1e+12,0.0,0.0,0.0,0.0,0.0,0.0,0.001,1.21798240976e-05,-1.84270572954e-05,0.0,0.0,0.0,7.57107648967e-05,0.0,0.0,0.0,0.0,0.0,0.0,0.0,0.0,0.0,0.0,0.0,0.0,0.0,0.0,0.0,0.0,0.0,0.0,0.0,0.0,0.0,0.0,0.0,0.0,0.0,0.0,0.0,0.0,0.0,0.0,0.0,0.0,0.0,0.0,0.0,0.0
61849000000,12868,61849000000,robotros_test/odom,robotros_test/chassis,0.00337320280023,0.000389604477835,-2.6765456379e-08,-2.11507719906e-06,-5.62266826224e-08,0.00240360639786,0.999997111332,1e-05,0.0,0.0,0.0,0.0,0.0,0.0,1e-05,0.0,0.0,0.0,0.0,0.0,0.0,1e+12,0.0,0.0,0.0,0.0,0.0,0.0,1e+12,0.0,0.0,0.0,0.0,0.0,0.0,1e+12,0.0,0.0,0.0,0.0,0.0,0.0,0.001,1.2179824427e-05,-1.84270586201e-05,0.0,0.0,0.0,7.57108061749e-05,0.0,0.0,0.0,0.0,0.0,0.0,0.0,0.0,0.0,0.0,0.0,0.0,0.0,0.0,0.0,0.0,0.0,0.0,0.0,0.0,0.0,0.0,0.0,0.0,0.0,0.0,0.0,0.0,0.0,0.0,0.0,0.0,0.0,0.0,0.0,0.0
61900000000,12869,61900000000,robotros_test/odom,robotros_test/chassis,0.00337405850088,0.000389254722298,-2.67654564901e-08,-2.11507717848e-06,-5.62307576103e-08,0.00240553276428,0.9999971067,1e-05,0.0,0.0,0.0,0.0,0.0,0.0,1e-05,0.0,0.0,0.0,0.0,0.0,0.0,1e+12,0.0,0.0,0.0,0.0,0.0,0.0,1e+12,0.0,0.0,0.0,0.0,0.0,0.0,1e+12,0.0,0.0,0.0,0.0,0.0,0.0,0.001,1.21798247421e-05,-1.84270599528e-05,0.0,0.0,0.0,7.57108474896e-05,0.0,0.0,0.0,0.0,0.0,0.0,0.0,0.0,0.0,0.0,0.0,0.0,0.0,0.0,0.0,0.0,0.0,0.0,0.0,0.0,0.0,0.0,0.0,0.0,0.0,0.0,0.0,0.0,0.0,0.0,0.0,0.0,0.0,0.0,0.0,0.0
61950000000,12870,61950000000,robotros_test/odom,robotros_test/chassis,0.00337491420284,0.000388904970015,-2.67654566843e-08,-2.11507715782e-06,-5.6234832579e-08,0.00240745913174,0.999997102064,1e-05,0.0,0.0,0.0,0.0,0.0,0.0,1e-05,0.0,0.0,0.0,0.0,0.0,0.0,1e+12,0.0,0.0,0.0,0.0,0.0,0.0,1e+12,0.0,0.0,0.0,0.0,0.0,0.0,1e+12,0.0,0.0,0.0,0.0,0.0,0.0,0.001,1.21798250734e-05,-1.84270612642e-05,0.0,0.0,0.0,7.57108887881e-05,0.0,0.0,0.0,0.0,0.0,0.0,0.0,0.0,0.0,0.0,0.0,0.0,0.0,0.0,0.0,0.0,0.0,0.0,0.0,0.0,0.0,0.0,0.0,0.0,0.0,0.0,0.0,0.0,0.0,0.0,0.0,0.0,0.0,0.0,0.0,0.0
62000000000,12871,62000000000,robotros_test/odom,robotros_test/chassis,0.00337576990611,0.000388555220985,-2.67654568509e-08,-2.1150771372e-06,-5.62389075238e-08,0.00240938550021,0.999997097424,1e-05,0.0,0.0,0.0,0.0,0.0,0.0,1e-05,0.0,0.0,0.0,0.0,0.0,0.0,1e+12,0.0,0.0,0.0,0.0,0.0,0.0,1e+12,0.0,0.0,0.0,0.0,0.0,0.0,1e+12,0.0,0.0,0.0,0.0,0.0,0.0,0.001,1.21798246661e-05,-1.8427061495e-05,0.0,0.0,0.0,7.5710930054e-05,0.0,0.0,0.0,0.0,0.0,0.0,0.0,0.0,0.0,0.0,0.0,0.0,0.0,0.0,0.0,0.0,0.0,0.0,0.0,0.0,0.0,0.0,0.0,0.0,0.0,0.0,0.0,0.0,0.0,0.0,0.0,0.0,0.0,0.0,0.0,0.0
62050000000,12872,62050000000,robotros_test/odom,robotros_test/chassis,0.00337662561068,0.000388205475209,-2.67654569897e-08,-2.11507711649e-06,-5.62429824357e-08,0.00241131186971,0.999997092781,1e-05,0.0,0.0,0.0,0.0,0.0,0.0,1e-05,0.0,0.0,0.0,0.0,0.0,0.0,1e+12,0.0,0.0,0.0,0.0,0.0,0.0,1e+12,0.0,0.0,0.0,0.0,0.0,0.0,1e+12,0.0,0.0,0.0,0.0,0.0,0.0,0.001,1.21798250005e-05,-1.84270628181e-05,0.0,0.0,0.0,7.57109712742e-05,0.0,0.0,0.0,0.0,0.0,0.0,0.0,0.0,0.0,0.0,0.0,0.0,0.0,0.0,0.0,0.0,0.0,0.0,0.0,0.0,0.0,0.0,0.0,0.0,0.0,0.0,0.0,0.0,0.0,0.0,0.0,0.0,0.0,0.0,0.0,0.0
62100000000,12873,62100000000,robotros_test/odom,robotros_test/chassis,0.00337748131655,0.000387855732686,-2.67654571562e-08,-2.1150770959e-06,-5.62470574199e-08,0.00241323824024,0.999997088134,1e-05,0.0,0.0,0.0,0.0,0.0,0.0,1e-05,0.0,0.0,0.0,0.0,0.0,0.0,1e+12,0.0,0.0,0.0,0.0,0.0,0.0,1e+12,0.0,0.0,0.0,0.0,0.0,0.0,1e+12,0.0,0.0,0.0,0.0,0.0,0.0,0.001,1.21798253267e-05,-1.842706415e-05,0.0,0.0,0.0,7.57110126481e-05,0.0,0.0,0.0,0.0,0.0,0.0,0.0,0.0,0.0,0.0,0.0,0.0,0.0,0.0,0.0,0.0,0.0,0.0,0.0,0.0,0.0,0.0,0.0,0.0,0.0,0.0,0.0,0.0,0.0,0.0,0.0,0.0,0.0,0.0,0.0,0.0
62150000000,12874,62150000000,robotros_test/odom,robotros_test/chassis,0.00337833702374,0.000387505993416,-2.67654572395e-08,-2.11507707525e-06,-5.62511323822e-08,0.0024151646118,0.999997083483,1e-05,0.0,0.0,0.0,0.0,0.0,0.0,1e-05,0.0,0.0,0.0,0.0,0.0,0.0,1e+12,0.0,0.0,0.0,0.0,0.0,0.0,1e+12,0.0,0.0,0.0,0.0,0.0,0.0,1e+12,0.0,0.0,0.0,0.0,0.0,0.0,0.001,1.2179824923e-05,-1.84270643764e-05,0.0,0.0,0.0,7.57110539191e-05,0.0,0.0,0.0,0.0,0.0,0.0,0.0,0.0,0.0,0.0,0.0,0.0,0.0,0.0,0.0,0.0,0.0,0.0,0.0,0.0,0.0,0.0,0.0,0.0,0.0,0.0,0.0,0.0,0.0,0.0,0.0,0.0,0.0,0.0,0.0,0.0
62200000000,12875,62200000000,robotros_test/odom,robotros_test/chassis,0.00337919273223,0.0003871562574,-2.6765457406e-08,-2.1150770546e-06,-5.62552074236e-08,0.00241709098437,0.999997078829,1e-05,0.0,0.0,0.0,0.0,0.0,0.0,1e-05,0.0,0.0,0.0,0.0,0.0,0.0,1e+12,0.0,0.0,0.0,0.0,0.0,0.0,1e+12,0.0,0.0,0.0,0.0,0.0,0.0,1e+12,0.0,0.0,0.0,0.0,0.0,0.0,0.001,1.21798252377e-05,-1.84270656912e-05,0.0,0.0,0.0,7.57110952057e-05,0.0,0.0,0.0,0.0,0.0,0.0,0.0,0.0,0.0,0.0,0.0,0.0,0.0,0.0,0.0,0.0,0.0,0.0,0.0,0.0,0.0,0.0,0.0,0.0,0.0,0.0,0.0,0.0,0.0,0.0,0.0,0.0,0.0,0.0,0.0,0.0
62250000000,12876,62250000000,robotros_test/odom,robotros_test/chassis,0.00338004844202,0.000386806524637,-2.67654575448e-08,-2.11507703392e-06,-5.62592823626e-08,0.00241901735798,0.999997074171,1e-05,0.0,0.0,0.0,0.0,0.0,0.0,1e-05,0.0,0.0,0.0,0.0,0.0,0.0,1e+12,0.0,0.0,0.0,0.0,0.0,0.0,1e+12,0.0,0.0,0.0,0.0,0.0,0.0,1e+12,0.0,0.0,0.0,0.0,0.0,0.0,0.001,1.21798255786e-05,-1.8427067015e-05,0.0,0.0,0.0,7.57111364643e-05,0.0,0.0,0.0,0.0,0.0,0.0,0.0,0.0,0.0,0.0,0.0,0.0,0.0,0.0,0.0,0.0,0.0,0.0,0.0,0.0,0.0,0.0,0.0,0.0,0.0,0.0,0.0,0.0,0.0,0.0,0.0,0.0,0.0,0.0,0.0,0.0
62300000000,12877,62300000000,robotros_test/odom,robotros_test/chassis,0.00338090415312,0.000386456795127,-2.67654577391e-08,-2.11507701324e-06,-5.62633573634e-08,0.00242094373261,0.999997069509,1e-05,0.0,0.0,0.0,0.0,0.0,0.0,1e-05,0.0,0.0,0.0,0.0,0.0,0.0,1e+12,0.0,0.0,0.0,0.0,0.0,0.0,1e+12,0.0,0.0,0.0,0.0,0.0,0.0,1e+12,0.0,0.0,0.0,0.0,0.0,0.0,0.001,1.21798251779e-05,-1.8427067236e-05,0.0,0.0,0.0,7.57111777568e-05,0.0,0.0,0.0,0.0,0.0,0.0,0.0,0.0,0.0,0.0,0.0,0.0,0.0,0.0,0.0,0.0,0.0,0.0,0.0,0.0,0.0,0.0,0.0,0.0,0.0,0.0,0.0,0.0,0.0,0.0,0.0,0.0,0.0,0.0,0.0,0.0
62350000000,12878,62350000000,robotros_test/odom,robotros_test/chassis,0.00338175986553,0.000386107068871,-2.67654578778e-08,-2.11507699252e-06,-5.62674323326e-08,0.00242287010826,0.999997064844,1e-05,0.0,0.0,0.0,0.0,0.0,0.0,1e-05,0.0,0.0,0.0,0.0,0.0,0.0,1e+12,0.0,0.0,0.0,0.0,0.0,0.0,1e+12,0.0,0.0,0.0,0.0,0.0,0.0,1e+12,0.0,0.0,0.0,0.0,0.0,0.0,0.001,1.21798255066e-05,-1.84270685704e-05,0.0,0.0,0.0,7.57112190251e-05,0.0,0.0,0.0,0.0,0.0,0.0,0.0,0.0,0.0,0.0,0.0,0.0,0.0,0.0,0.0,0.0,0.0,0.0,0.0,0.0,0.0,0.0,0.0,0.0,0.0,0.0,0.0,0.0,0.0,0.0,0.0,0.0,0.0,0.0,0.0,0.0
62400000000,12879,62400000000,robotros_test/odom,robotros_test/chassis,0.00338261557924,0.000385757345868,-2.67654580444e-08,-2.1150769719e-06,-5.62715072844e-08,0.00242479648494,0.999997060174,1e-05,0.0,0.0,0.0,0.0,0.0,0.0,1e-05,0.0,0.0,0.0,0.0,0.0,0.0,1e+12,0.0,0.0,0.0,0.0,0.0,0.0,1e+12,0.0,0.0,0.0,0.0,0.0,0.0,1e+12,0.0,0.0,0.0,0.0,0.0,0.0,0.001,1.21798258277e-05,-1.84270698944e-05,0.0,0.0,0.0,7.57112603776e-05,0.0,0.0,0.0,0.0,0.0,0.0,0.0,0.0,0.0,0.0,0.0,0.0,0.0,0.0,0.0,0.0,0.0,0.0,0.0,0.0,0.0,0.0,0.0,0.0,0.0,0.0,0.0,0.0,0.0,0.0,0.0,0.0,0.0,0.0,0.0,0.0
62450000000,12880,62450000000,robotros_test/odom,robotros_test/chassis,0.00338347129426,0.000385407626119,-2.67654581554e-08,-2.11507695121e-06,-5.62755822274e-08,0.00242672286265,0.999997055502,1e-05,0.0,0.0,0.0,0.0,0.0,0.0,1e-05,0.0,0.0,0.0,0.0,0.0,0.0,1e+12,0.0,0.0,0.0,0.0,0.0,0.0,1e+12,0.0,0.0,0.0,0.0,0.0,0.0,1e+12,0.0,0.0,0.0,0.0,0.0,0.0,0.001,1.21798254225e-05,-1.84270701289e-05,0.0,0.0,0.0,7.57113016579e-05,0.0,0.0,0.0,0.0,0.0,0.0,0.0,0.0,0.0,0.0,0.0,0.0,0.0,0.0,0.0,0.0,0.0,0.0,0.0,0.0,0.0,0.0,0.0,0.0,0.0,0.0,0.0,0.0,0.0,0.0,0.0,0.0,0.0,0.0,0.0,0.0
62500000000,12881,62500000000,robotros_test/odom,robotros_test/chassis,0.00338432701059,0.000385057909623,-2.67654583219e-08,-2.11507693053e-06,-5.62796572473e-08,0.00242864924138,0.999997050825,1e-05,0.0,0.0,0.0,0.0,0.0,0.0,1e-05,0.0,0.0,0.0,0.0,0.0,0.0,1e+12,0.0,0.0,0.0,0.0,0.0,0.0,1e+12,0.0,0.0,0.0,0.0,0.0,0.0,1e+12,0.0,0.0,0.0,0.0,0.0,0.0,0.001,1.21798257605e-05,-1.84270714538e-05,0.0,0.0,0.0,7.57113428872e-05,0.0,0.0,0.0,0.0,0.0,0.0,0.0,0.0,0.0,0.0,0.0,0.0,0.0,0.0,0.0,0.0,0.0,0.0,0.0,0.0,0.0,0.0,0.0,0.0,0.0,0.0,0.0,0.0,0.0,0.0,0.0,0.0,0.0,0.0,0.0,0.0
62550000000,12882,62550000000,robotros_test/odom,robotros_test/chassis,0.00338518272822,0.000384708196381,-2.67654584885e-08,-2.11507690981e-06,-5.62837322469e-08,0.00243057562113,0.999997046144,1e-05,0.0,0.0,0.0,0.0,0.0,0.0,1e-05,0.0,0.0,0.0,0.0,0.0,0.0,1e+12,0.0,0.0,0.0,0.0,0.0,0.0,1e+12,0.0,0.0,0.0,0.0,0.0,0.0,1e+12,0.0,0.0,0.0,0.0,0.0,0.0,0.001,1.21798260815e-05,-1.84270727762e-05,0.0,0.0,0.0,7.57113842539e-05,0.0,0.0,0.0,0.0,0.0,0.0,0.0,0.0,0.0,0.0,0.0,0.0,0.0,0.0,0.0,0.0,0.0,0.0,0.0,0.0,0.0,0.0,0.0,0.0,0.0,0.0,0.0,0.0,0.0,0.0,0.0,0.0,0.0,0.0,0.0,0.0
62599000000,12883,62599000000,robotros_test/odom,robotros_test/chassis,0.00338603844716,0.000384358486391,-2.67654585995e-08,-2.11507688895e-06,-5.62878072114e-08,0.00243250200191,0.99999704146,1e-05,0.0,0.0,0.0,0.0,0.0,0.0,1e-05,0.0,0.0,0.0,0.0,0.0,0.0,1e+12,0.0,0.0,0.0,0.0,0.0,0.0,1e+12,0.0,0.0,0.0,0.0,0.0,0.0,1e+12,0.0,0.0,0.0,0.0,0.0,0.0,0.001,1.21798256778e-05,-1.84270730088e-05,0.0,0.0,0.0,7.5711425528e-05,0.0,0.0,0.0,0.0,0.0,0.0,0.0,0.0,0.0,0.0,0.0,0.0,0.0,0.0,0.0,0.0,0.0,0.0,0.0,0.0,0.0,0.0,0.0,0.0,0.0,0.0,0.0,0.0,0.0,0.0,0.0,0.0,0.0,0.0,0.0,0.0
62650000000,12884,62650000000,robotros_test/odom,robotros_test/chassis,0.0033868941674,0.000384008779656,-2.67654587938e-08,-2.11507686832e-06,-5.62918822458e-08,0.00243442838372,0.999997036773,1e-05,0.0,0.0,0.0,0.0,0.0,0.0,1e-05,0.0,0.0,0.0,0.0,0.0,0.0,1e+12,0.0,0.0,0.0,0.0,0.0,0.0,1e+12,0.0,0.0,0.0,0.0,0.0,0.0,1e+12,0.0,0.0,0.0,0.0,0.0,0.0,0.001,1.21798260061e-05,-1.84270743327e-05,0.0,0.0,0.0,7.57114667769e-05,0.0,0.0,0.0,0.0,0.0,0.0,0.0,0.0,0.0,0.0,0.0,0.0,0.0,0.0,0.0,0.0,0.0,0.0,0.0,0.0,0.0,0.0,0.0,0.0,0.0,0.0,0.0,0.0,0.0,0.0,0.0,0.0,0.0,0.0,0.0,0.0
62700000000,12885,62700000000,robotros_test/odom,robotros_test/chassis,0.00338774988895,0.000383659076174,-2.67654589048e-08,-2.11507684754e-06,-5.62959571826e-08,0.00243635476655,0.999997032081,1e-05,0.0,0.0,0.0,0.0,0.0,0.0,1e-05,0.0,0.0,0.0,0.0,0.0,0.0,1e+12,0.0,0.0,0.0,0.0,0.0,0.0,1e+12,0.0,0.0,0.0,0.0,0.0,0.0,1e+12,0.0,0.0,0.0,0.0,0.0,0.0,0.001,1.21798263494e-05,-1.84270756646e-05,0.0,0.0,0.0,7.57115080215e-05,0.0,0.0,0.0,0.0,0.0,0.0,0.0,0.0,0.0,0.0,0.0,0.0,0.0,0.0,0.0,0.0,0.0,0.0,0.0,0.0,0.0,0.0,0.0,0.0,0.0,0.0,0.0,0.0,0.0,0.0,0.0,0.0,0.0,0.0,0.0,0.0
62750000000,12886,62750000000,robotros_test/odom,robotros_test/chassis,0.00338860561181,0.000383309375945,-2.67654590713e-08,-2.11507682683e-06,-5.63000321914e-08,0.0024382811504,0.999997027386,1e-05,0.0,0.0,0.0,0.0,0.0,0.0,1e-05,0.0,0.0,0.0,0.0,0.0,0.0,1e+12,0.0,0.0,0.0,0.0,0.0,0.0,1e+12,0.0,0.0,0.0,0.0,0.0,0.0,1e+12,0.0,0.0,0.0,0.0,0.0,0.0,0.001,1.21798266754e-05,-1.84270769839e-05,0.0,0.0,0.0,7.57115493825e-05,0.0,0.0,0.0,0.0,0.0,0.0,0.0,0.0,0.0,0.0,0.0,0.0,0.0,0.0,0.0,0.0,0.0,0.0,0.0,0.0,0.0,0.0,0.0,0.0,0.0,0.0,0.0,0.0,0.0,0.0,0.0,0.0,0.0,0.0,0.0,0.0
62800000000,12887,62800000000,robotros_test/odom,robotros_test/chassis,0.00338946133597,0.00038295967897,-2.67654592379e-08,-2.11507680612e-06,-5.63041071814e-08,0.00244020753529,0.999997022687,1e-05,0.0,0.0,0.0,0.0,0.0,0.0,1e-05,0.0,0.0,0.0,0.0,0.0,0.0,1e+12,0.0,0.0,0.0,0.0,0.0,0.0,1e+12,0.0,0.0,0.0,0.0,0.0,0.0,1e+12,0.0,0.0,0.0,0.0,0.0,0.0,0.001,1.21798262736e-05,-1.84270772253e-05,0.0,0.0,0.0,7.57115906656e-05,0.0,0.0,0.0,0.0,0.0,0.0,0.0,0.0,0.0,0.0,0.0,0.0,0.0,0.0,0.0,0.0,0.0,0.0,0.0,0.0,0.0,0.0,0.0,0.0,0.0,0.0,0.0,0.0,0.0,0.0,0.0,0.0,0.0,0.0,0.0,0.0
62850000000,12888,62850000000,robotros_test/odom,robotros_test/chassis,0.00339031706144,0.000382609985249,-2.67654593766e-08,-2.11507678528e-06,-5.63081822498e-08,0.00244213392119,0.999997017984,1e-05,0.0,0.0,0.0,0.0,0.0,0.0,1e-05,0.0,0.0,0.0,0.0,0.0,0.0,1e+12,0.0,0.0,0.0,0.0,0.0,0.0,1e+12,0.0,0.0,0.0,0.0,0.0,0.0,1e+12,0.0,0.0,0.0,0.0,0.0,0.0,0.001,1.21798265979e-05,-1.84270785566e-05,0.0,0.0,0.0,7.57116319124e-05,0.0,0.0,0.0,0.0,0.0,0.0,0.0,0.0,0.0,0.0,0.0,0.0,0.0,0.0,0.0,0.0,0.0,0.0,0.0,0.0,0.0,0.0,0.0,0.0,0.0,0.0,0.0,0.0,0.0,0.0,0.0,0.0,0.0,0.0,0.0,0.0
62900000000,12889,62900000000,robotros_test/odom,robotros_test/chassis,0.00398178354681,0.00038522925484,4.8022327076e-07,-1.75807370416e-06,-1.65745932563e-06,0.00246040238671,0.999996973203,1e-05,0.0,0.0,0.0,0.0,0.0,0.0,1e-05,0.0,0.0,0.0,0.0,0.0,0.0,1e+12,0.0,0.0,0.0,0.0,0.0,0.0,1e+12,0.0,0.0,0.0,0.0,0.0,0.0,1e+12,0.0,0.0,0.0,0.0,0.0,0.0,0.001,0.0232170321418,-1.04759276292e-05,0.0,0.0,0.0,0.00139414421815,0.0,0.0,0.0,0.0,0.0,0.0,0.0,0.0,0.0,0.0,0.0,0.0,0.0,0.0,0.0,0.0,0.0,0.0,0.0,0.0,0.0,0.0,0.0,0.0,0.0,0.0,0.0,0.0,0.0,0.0,0.0,0.0,0.0,0.0,0.0,0.0
62950000000,12890,62950000000,robotros_test/odom,robotros_test/chassis,0.00574012874192,0.000393694564963,4.46583775876e-07,-1.55477523887e-06,-1.54491212913e-06,0.00250637584567,0.999996859033,1e-05,0.0,0.0,0.0,0.0,0.0,0.0,1e-05,0.0,0.0,0.0,0.0,0.0,0.0,1e+12,0.0,0.0,0.0,0.0,0.0,0.0,1e+12,0.0,0.0,0.0,0.0,0.0,0.0,1e+12,0.0,0.0,0.0,0.0,0.0,0.0,0.001,0.0465569181479,-1.10981755567e-05,0.0,0.0,0.0,0.00248264988982,0.0,0.0,0.0,0.0,0.0,0.0,0.0,0.0,0.0,0.0,0.0,0.0,0.0,0.0,0.0,0.0,0.0,0.0,0.0,0.0,0.0,0.0,0.0,0.0,0.0,0.0,0.0,0.0,0.0,0.0,0.0,0.0,0.0,0.0,0.0,0.0
63000000000,12891,63000000000,robotros_test/odom,robotros_test/chassis,0.00866543383924,0.000408302490829,3.89417423169e-07,-1.20941481431e-06,-1.35360223803e-06,0.00257956099711,0.999996672925,1e-05,0.0,0.0,0.0,0.0,0.0,0.0,1e-05,0.0,0.0,0.0,0.0,0.0,0.0,1e+12,0.0,0.0,0.0,0.0,0.0,0.0,1e+12,0.0,0.0,0.0,0.0,0.0,0.0,1e+12,0.0,0.0,0.0,0.0,0.0,0.0,0.001,0.0698967833218,-1.17989551336e-05,0.0,0.0,0.0,0.00357087610462,0.0,0.0,0.0,0.0,0.0,0.0,0.0,0.0,0.0,0.0,0.0,0.0,0.0,0.0,0.0,0.0,0.0,0.0,0.0,0.0,0.0,0.0,0.0,0.0,0.0,0.0,0.0,0.0,0.0,0.0,0.0,0.0,0.0,0.0,0.0,0.0
63050000000,12892,63050000000,robotros_test/odom,robotros_test/chassis,0.0127576934183,0.000429552864834,3.06951013634e-07,-7.11483999405e-07,-1.07753114057e-06,0.00267994697846,0.999996408935,1e-05,0.0,0.0,0.0,0.0,0.0,0.0,1e-05,0.0,0.0,0.0,0.0,0.0,0.0,1e+12,0.0,0.0,0.0,0.0,0.0,0.0,1e+12,0.0,0.0,0.0,0.0,0.0,0.0,1e+12,0.0,0.0,0.0,0.0,0.0,0.0,0.001,0.0932366223951,-1.25916566213e-05,0.0,0.0,0.0,0.00465857497543,0.0,0.0,0.0,0.0,0.0,0.0,0.0,0.0,0.0,0.0,0.0,0.0,0.0,0.0,0.0,0.0,0.0,0.0,0.0,0.0,0.0,0.0,0.0,0.0,0.0,0.0,0.0,0.0,0.0,0.0,0.0,0.0,0.0,0.0,0.0,0.0
63100000000,12893,63100000000,robotros_test/odom,robotros_test/chassis,0.0180168996843,0.000458135861306,1.96881526554e-07,-4.73049574328e-08,-7.08896800848e-07,0.00280751812142,0.999996058913,1e-05,0.0,0.0,0.0,0.0,0.0,0.0,1e-05,0.0,0.0,0.0,0.0,0.0,0.0,1e+12,0.0,0.0,0.0,0.0,0.0,0.0,1e+12,0.0,0.0,0.0,0.0,0.0,0.0,1e+12,0.0,0.0,0.0,0.0,0.0,0.0,0.001,0.116576424955,-1.34869304409e-05,0.0,0.0,0.0,0.00574555024273,0.0,0.0,0.0,0.0,0.0,0.0,0.0,0.0,0.0,0.0,0.0,0.0,0.0,0.0,0.0,0.0,0.0,0.0,0.0,0.0,0.0,0.0,0.0,0.0,0.0,0.0,0.0,0.0,0.0,0.0,0.0,0.0,0.0,0.0,0.0,0.0
63150000000,12894,63150000000,robotros_test/odom,robotros_test/chassis,0.0244430422582,0.000494931805142,5.65621635917e-08,7.98834830695e-07,-2.38711757413e-07,0.00296225353861,0.999995612517,1e-05,0.0,0.0,0.0,0.0,0.0,0.0,1e-05,0.0,0.0,0.0,0.0,0.0,0.0,1e+12,0.0,0.0,0.0,0.0,0.0,0.0,1e+12,0.0,0.0,0.0,0.0,0.0,0.0,1e+12,0.0,0.0,0.0,0.0,0.0,0.0,0.001,0.139916162295,-1.44903204672e-05,0.0,0.0,0.0,0.00683158129152,0.0,0.0,0.0,0.0,0.0,0.0,0.0,0.0,0.0,0.0,0.0,0.0,0.0,0.0,0.0,0.0,0.0,0.0,0.0,0.0,0.0,0.0,0.0,0.0,0.0,0.0,0.0,0.0,0.0,0.0,0.0,0.0,0.0,0.0,0.0,0.0
63200000000,12895,63200000000,robotros_test/odom,robotros_test/chassis,0.0320350244224,0.00054103475462,-2.00123334848e-08,2.04189443063e-06,-3.13876398901e-08,0.00314360623572,0.999995058856,1e-05,0.0,0.0,0.0,0.0,0.0,0.0,1e-05,0.0,0.0,0.0,0.0,0.0,0.0,1e+12,0.0,0.0,0.0,0.0,0.0,0.0,1e+12,0.0,0.0,0.0,0.0,0.0,0.0,1e+12,0.0,0.0,0.0,0.0,0.0,0.0,0.001,0.163247713394,-1.65342494076e-05,0.0,0.0,0.0,0.00787028306399,0.0,0.0,0.0,0.0,0.0,0.0,0.0,0.0,0.0,0.0,0.0,0.0,0.0,0.0,0.0,0.0,0.0,0.0,0.0,0.0,0.0,0.0,0.0,0.0,0.0,0.0,0.0,0.0,0.0,0.0,0.0,0.0,0.0,0.0,0.0,0.0
63250000000,12896,63250000000,robotros_test/odom,robotros_test/chassis,0.0407935164402,0.000597676608701,-1.75881282038e-08,3.48193345377e-06,-2.14902862439e-08,0.00335130357927,0.99999438436,1e-05,0.0,0.0,0.0,0.0,0.0,0.0,1e-05,0.0,0.0,0.0,0.0,0.0,0.0,1e+12,0.0,0.0,0.0,0.0,0.0,0.0,1e+12,0.0,0.0,0.0,0.0,0.0,0.0,1e+12,0.0,0.0,0.0,0.0,0.0,0.0,0.001,0.186587623571,-1.55238995345e-05,0.0,0.0,0.0,0.00895192312778,0.0,0.0,0.0,0.0,0.0,0.0,0.0,0.0,0.0,0.0,0.0,0.0,0.0,0.0,0.0,0.0,0.0,0.0,0.0,0.0,0.0,0.0,0.0,0.0,0.0,0.0,0.0,0.0,0.0,0.0,0.0,0.0,0.0,0.0,0.0,0.0
63300000000,12897,63300000000,robotros_test/odom,robotros_test/chassis,0.0507189197244,0.000666321541904,-1.4730113046e-08,5.17847835428e-06,-9.11162894666e-09,0.0035860150625,0.999993570214,1e-05,0.0,0.0,0.0,0.0,0.0,0.0,1e-05,0.0,0.0,0.0,0.0,0.0,0.0,1e+12,0.0,0.0,0.0,0.0,0.0,0.0,1e+12,0.0,0.0,0.0,0.0,0.0,0.0,1e+12,0.0,0.0,0.0,0.0,0.0,0.0,0.001,0.20992732357,-1.40335631344e-05,0.0,0.0,0.0,0.010031292703,0.0,0.0,0.0,0.0,0.0,0.0,0.0,0.0,0.0,0.0,0.0,0.0,0.0,0.0,0.0,0.0,0.0,0.0,0.0,0.0,0.0,0.0,0.0,0.0,0.0,0.0,0.0,0.0,0.0,0.0,0.0,0.0,0.0,0.0,0.0,0.0
63350000000,12898,63350000000,robotros_test/odom,robotros_test/chassis,0.0618112107665,0.000748606326305,-1.14356558389e-08,7.13566893698e-06,6.08666559281e-09,0.00384768034755,0.999992597625,1e-05,0.0,0.0,0.0,0.0,0.0,0.0,1e-05,0.0,0.0,0.0,0.0,0.0,0.0,1e+12,0.0,0.0,0.0,0.0,0.0,0.0,1e+12,0.0,0.0,0.0,0.0,0.0,0.0,1e+12,0.0,0.0,0.0,0.0,0.0,0.0,0.001,0.233266864896,-1.21525166431e-05,0.0,0.0,0.0,0.0111081586544,0.0,0.0,0.0,0.0,0.0,0.0,0.0,0.0,0.0,0.0,0.0,0.0,0.0,0.0,0.0,0.0,0.0,0.0,0.0,0.0,0.0,0.0,0.0,0.0,0.0,0.0,0.0,0.0,0.0,0.0,0.0,0.0,0.0,0.0,0.0,0.0
63400000000,12899,63400000000,robotros_test/odom,robotros_test/chassis,0.0740703613788,0.000846354944511,-7.7200797699e-09,9.34563529566e-06,2.44043600453e-08,0.00413623279197,0.999991445709,1e-05,0.0,0.0,0.0,0.0,0.0,0.0,1e-05,0.0,0.0,0.0,0.0,0.0,0.0,1e+12,0.0,0.0,0.0,0.0,0.0,0.0,1e+12,0.0,0.0,0.0,0.0,0.0,0.0,1e+12,0.0,0.0,0.0,0.0,0.0,0.0,0.001,0.256606244482,-9.84328719e-06,0.0,0.0,0.0,0.012182243704,0.0,0.0,0.0,0.0,0.0,0.0,0.0,0.0,0.0,0.0,0.0,0.0,0.0,0.0,0.0,0.0,0.0,0.0,0.0,0.0,0.0,0.0,0.0,0.0,0.0,0.0,0.0,0.0,0.0,0.0,0.0,0.0,0.0,0.0,0.0,0.0
63450000000,12900,63450000000,robotros_test/odom,robotros_test/chassis,0.0874963383808,0.000961577470175,-3.6275055737e-09,1.17840240452e-05,4.60441491342e-08,0.00445159977453,0.999990091511,1e-05,0.0,0.0,0.0,0.0,0.0,0.0,1e-05,0.0,0.0,0.0,0.0,0.0,0.0,1e+12,0.0,0.0,0.0,0.0,0.0,0.0,1e+12,0.0,0.0,0.0,0.0,0.0,0.0,1e+12,0.0,0.0,0.0,0.0,0.0,0.0,0.001,0.279945411819,-7.07991901535e-06,0.0,0.0,0.0,0.013253359559,0.0,0.0,0.0,0.0,0.0,0.0,0.0,0.0,0.0,0.0,0.0,0.0,0.0,0.0,0.0,0.0,0.0,0.0,0.0,0.0,0.0,0.0,0.0,0.0,0.0,0.0,0.0,0.0,0.0,0.0,0.0,0.0,0.0,0.0,0.0,0.0
63500000000,12901,63500000000,robotros_test/odom,robotros_test/chassis,0.102081721386,0.00109563443982,-1.75514895498e-06,1.58238442625e-05,-5.77415083676e-06,0.00479202197488,0.999988518055,1e-05,0.0,0.0,0.0,0.0,0.0,0.0,1e-05,0.0,0.0,0.0,0.0,0.0,0.0,1e+12,0.0,0.0,0.0,0.0,0.0,0.0,1e+12,0.0,0.0,0.0,0.0,0.0,0.0,1e+12,0.0,0.0,0.0,0.0,0.0,0.0,0.001,0.302858761548,-0.00020118335721,0.0,0.0,0.0,0.0141105520956,0.0,0.0,0.0,0.0,0.0,0.0,0.0,0.0,0.0,0.0,0.0,0.0,0.0,0.0,0.0,0.0,0.0,0.0,0.0,0.0,0.0,0.0,0.0,0.0,0.0,0.0,0.0,0.0,0.0,0.0,0.0,0.0,0.0,0.0,0.0,0.0
