%time,field.header.seq,field.header.stamp,field.header.frame_id,field.child_frame_id,field.pose.pose.position.x,field.pose.pose.position.y,field.pose.pose.position.z,field.pose.pose.orientation.x,field.pose.pose.orientation.y,field.pose.pose.orientation.z,field.pose.pose.orientation.w,field.pose.covariance0,field.pose.covariance1,field.pose.covariance2,field.pose.covariance3,field.pose.covariance4,field.pose.covariance5,field.pose.covariance6,field.pose.covariance7,field.pose.covariance8,field.pose.covariance9,field.pose.covariance10,field.pose.covariance11,field.pose.covariance12,field.pose.covariance13,field.pose.covariance14,field.pose.covariance15,field.pose.covariance16,field.pose.covariance17,field.pose.covariance18,field.pose.covariance19,field.pose.covariance20,field.pose.covariance21,field.pose.covariance22,field.pose.covariance23,field.pose.covariance24,field.pose.covariance25,field.pose.covariance26,field.pose.covariance27,field.pose.covariance28,field.pose.covariance29,field.pose.covariance30,field.pose.covariance31,field.pose.covariance32,field.pose.covariance33,field.pose.covariance34,field.pose.covariance35,field.twist.twist.linear.x,field.twist.twist.linear.y,field.twist.twist.linear.z,field.twist.twist.angular.x,field.twist.twist.angular.y,field.twist.twist.angular.z,field.twist.covariance0,field.twist.covariance1,field.twist.covariance2,field.twist.covariance3,field.twist.covariance4,field.twist.covariance5,field.twist.covariance6,field.twist.covariance7,field.twist.covariance8,field.twist.covariance9,field.twist.covariance10,field.twist.covariance11,field.twist.covariance12,field.twist.covariance13,field.twist.covariance14,field.twist.covariance15,field.twist.covariance16,field.twist.covariance17,field.twist.covariance18,field.twist.covariance19,field.twist.covariance20,field.twist.covariance21,field.twist.covariance22,field.twist.covariance23,field.twist.covariance24,field.twist.covariance25,field.twist.covariance26,field.twist.covariance27,field.twist.covariance28,field.twist.covariance29,field.twist.covariance30,field.twist.covariance31,field.twist.covariance32,field.twist.covariance33,field.twist.covariance34,field.twist.covariance35
271310000000,74,271310000000,world,chassis,0.00466535896987,-0.00112084587045,0.0999999576536,-1.8014287099e-06,-9.86560381444e-08,0.0095930311968,0.999953985816,0.0004,0.0,0.0,0.0,0.0,0.0,0.0,0.0004,0.0,0.0,0.0,0.0,0.0,0.0,0.0004,0.0,0.0,0.0,0.0,0.0,0.0,0.0004,0.0,0.0,0.0,0.0,0.0,0.0,0.0004,0.0,0.0,0.0,0.0,0.0,0.0,0.0004,0.0212049060625,0.0254589886732,-0.00343921210925,-0.00562738476127,0.00383894801292,0.0227510659782,0.0004,0.0,0.0,0.0,0.0,0.0,0.0,0.0004,0.0,0.0,0.0,0.0,0.0,0.0,0.0004,0.0,0.0,0.0,0.0,0.0,0.0,0.0004,0.0,0.0,0.0,0.0,0.0,0.0,0.0004,0.0,0.0,0.0,0.0,0.0,0.0,0.0004
271360000000,75,271360000000,world,chassis,0.00466621816237,-0.00112118732173,0.0999999576536,-1.80142861918e-06,-9.86595462859e-08,0.00959497748112,0.999953967142,0.0004,0.0,0.0,0.0,0.0,0.0,0.0,0.0004,0.0,0.0,0.0,0.0,0.0,0.0,0.0004,0.0,0.0,0.0,0.0,0.0,0.0,0.0004,0.0,0.0,0.0,0.0,0.0,0.0,0.0004,0.0,0.0,0.0,0.0,0.0,0.0,0.0004,-0.0255692699055,0.00741764259162,-0.0128505692567,0.0187896397962,-0.00650190443984,-0.0139498189246,0.0004,0.0,0.0,0.0,0.0,0.0,0.0,0.0004,0.0,0.0,0.0,0.0,0.0,0.0,0.0004,0.0,0.0,0.0,0.0,0.0,0.0,0.0004,0.0,0.0,0.0,0.0,0.0,0.0,0.0004,0.0,0.0,0.0,0.0,0.0,0.0,0.0004
271410000000,76,271410000000,world,chassis,0.00466707735615,-0.00112152876972,0.0999999576536,-1.80142852857e-06,-9.86630545076e-08,0.00959692376646,0.999953948465,0.0004,0.0,0.0,0.0,0.0,0.0,0.0,0.0004,0.0,0.0,0.0,0.0,0.0,0.0,0.0004,0.0,0.0,0.0,0.0,0.0,0.0,0.0004,0.0,0.0,0.0,0.0,0.0,0.0,0.0004,0.0,0.0,0.0,0.0,0.0,0.0,0.0004,-0.0110642750897,-0.00191584694568,0.00203535422625,0.0333541970177,0.0269529166637,-0.00819109621368,0.0004,0.0,0.0,0.0,0.0,0.0,0.0,0.0004,0.0,0.0,0.0,0.0,0.0,0.0,0.0004,0.0,0.0,0.0,0.0,0.0,0.0,0.0004,0.0,0.0,0.0,0.0,0.0,0.0,0.0004,0.0,0.0,0.0,0.0,0.0,0.0,0.0004
271460000000,77,271460000000,world,chassis,0.00466793655122,-0.0011218702144,0.0999999576536,-1.80142843792e-06,-9.86665627204e-08,0.00959887005281,0.999953929784,0.0004,0.0,0.0,0.0,0.0,0.0,0.0,0.0004,0.0,0.0,0.0,0.0,0.0,0.0,0.0004,0.0,0.0,0.0,0.0,0.0,0.0,0.0004,0.0,0.0,0.0,0.0,0.0,0.0,0.0004,0.0,0.0,0.0,0.0,0.0,0.0,0.0004,0.0220296083391,0.000974584073561,0.000412617180059,-0.0291887157819,0.00260465916671,0.00731001452507,0.0004,0.0,0.0,0.0,0.0,0.0,0.0,0.0004,0.0,0.0,0.0,0.0,0.0,0.0,0.0004,0.0,0.0,0.0,0.0,0.0,0.0,0.0004,0.0,0.0,0.0,0.0,0.0,0.0,0.0004,0.0,0.0,0.0,0.0,0.0,0.0,0.0004
271510000000,78,271510000000,world,chassis,0.00466879574758,-0.00112221165579,0.0999999576536,-1.80142834722e-06,-9.86700709222e-08,0.00960081634018,0.999953911099,0.0004,0.0,0.0,0.0,0.0,0.0,0.0,0.0004,0.0,0.0,0.0,0.0,0.0,0.0,0.0004,0.0,0.0,0.0,0.0,0.0,0.0,0.0004,0.0,0.0,0.0,0.0,0.0,0.0,0.0004,0.0,0.0,0.0,0.0,0.0,0.0,0.0004,0.0112377592171,-0.0215056947472,-0.014403730918,-0.0359239955349,-0.0048277299024,-0.0223607618653,0.0004,0.0,0.0,0.0,0.0,0.0,0.0,0.0004,0.0,0.0,0.0,0.0,0.0,0.0,0.0004,0.0,0.0,0.0,0.0,0.0,0.0,0.0004,0.0,0.0,0.0,0.0,0.0,0.0,0.0004,0.0,0.0,0.0,0.0,0.0,0.0,0.0004
271560000000,79,271560000000,world,chassis,0.00466965494523,-0.00112255309388,0.0999999576536,-1.80142825656e-06,-9.86735790996e-08,0.00960276262856,0.99995389241,0.0004,0.0,0.0,0.0,0.0,0.0,0.0,0.0004,0.0,0.0,0.0,0.0,0.0,0.0,0.0004,0.0,0.0,0.0,0.0,0.0,0.0,0.0004,0.0,0.0,0.0,0.0,0.0,0.0,0.0004,0.0,0.0,0.0,0.0,0.0,0.0,0.0004,-0.00617187767489,0.0338282229483,0.00710140358991,-0.0366993523077,-0.0162325703183,-0.045361923975,0.0004,0.0,0.0,0.0,0.0,0.0,0.0,0.0004,0.0,0.0,0.0,0.0,0.0,0.0,0.0004,0.0,0.0,0.0,0.0,0.0,0.0,0.0004,0.0,0.0,0.0,0.0,0.0,0.0,0.0004,0.0,0.0,0.0,0.0,0.0,0.0,0.0004
271610000000,80,271610000000,world,chassis,0.00467051414416,-0.00112289452867,0.0999999576536,-1.80142816587e-06,-9.86770872724e-08,0.00960470891796,0.999953873718,0.0004,0.0,0.0,0.0,0.0,0.0,0.0,0.0004,0.0,0.0,0.0,0.0,0.0,0.0,0.0004,0.0,0.0,0.0,0.0,0.0,0.0,0.0004,0.0,0.0,0.0,0.0,0.0,0.0,0.0004,0.0,0.0,0.0,0.0,0.0,0.0,0.0004,-0.0270901039929,-0.0138621921587,0.0140246591196,0.0474070994882,0.00311228833873,-0.00734885343632,0.0004,0.0,0.0,0.0,0.0,0.0,0.0,0.0004,0.0,0.0,0.0,0.0,0.0,0.0,0.0004,0.0,0.0,0.0,0.0,0.0,0.0,0.0004,0.0,0.0,0.0,0.0,0.0,0.0,0.0004,0.0,0.0,0.0,0.0,0.0,0.0,0.0004
271660000000,81,271660000000,world,chassis,0.00467137334438,-0.00112323596015,0.0999999576536,-1.80142807513e-06,-9.8680595539e-08,0.00960665520838,0.999953855022,0.0004,0.0,0.0,0.0,0.0,0.0,0.0,0.0004,0.0,0.0,0.0,0.0,0.0,0.0,0.0004,0.0,0.0,0.0,0.0,0.0,0.0,0.0004,0.0,0.0,0.0,0.0,0.0,0.0,0.0004,0.0,0.0,0.0,0.0,0.0,0.0,0.0004,-0.0214181902308,-0.014215879928,0.0134629362017,0.00807985541391,-0.000156255394219,-0.00634808583866,0.0004,0.0,0.0,0.0,0.0,0.0,0.0,0.0004,0.0,0.0,0.0,0.0,0.0,0.0,0.0004,0.0,0.0,0.0,0.0,0.0,0.0,0.0004,0.0,0.0,0.0,0.0,0.0,0.0,0.0004,0.0,0.0,0.0,0.0,0.0,0.0,0.0004
271710000000,82,271710000000,world,chassis,0.00467223254588,-0.00112357738834,0.0999999576536,-1.8014279845e-06,-9.86841036916e-08,0.00960860149981,0.999953836321,0.0004,0.0,0.0,0.0,0.0,0.0,0.0,0.0004,0.0,0.0,0.0,0.0,0.0,0.0,0.0004,0.0,0.0,0.0,0.0,0.0,0.0,0.0004,0.0,0.0,0.0,0.0,0.0,0.0,0.0004,0.0,0.0,0.0,0.0,0.0,0.0,0.0004,-0.0136383342979,-0.00650912663647,-0.00813396439751,-0.0124706887323,0.0188686238817,-0.0219148216978,0.0004,0.0,0.0,0.0,0.0,0.0,0.0,0.0004,0.0,0.0,0.0,0.0,0.0,0.0,0.0004,0.0,0.0,0.0,0.0,0.0,0.0,0.0004,0.0,0.0,0.0,0.0,0.0,0.0,0.0004,0.0,0.0,0.0,0.0,0.0,0.0,0.0004
271760000000,83,271760000000,world,chassis,0.00467309174867,-0.00112391881323,0.0999999576536,-1.80142789371e-06,-9.86876119213e-08,0.00961054779226,0.999953817618,0.0004,0.0,0.0,0.0,0.0,0.0,0.0,0.0004,0.0,0.0,0.0,0.0,0.0,0.0,0.0004,0.0,0.0,0.0,0.0,0.0,0.0,0.0004,0.0,0.0,0.0,0.0,0.0,0.0,0.0004,0.0,0.0,0.0,0.0,0.0,0.0,0.0004,-0.011976627411,-0.0142475919261,-0.0421728723113,0.0215152533187,0.0319881973578,-0.00938093380633,0.0004,0.0,0.0,0.0,0.0,0.0,0.0,0.0004,0.0,0.0,0.0,0.0,0.0,0.0,0.0004,0.0,0.0,0.0,0.0,0.0,0.0,0.0004,0.0,0.0,0.0,0.0,0.0,0.0,0.0004,0.0,0.0,0.0,0.0,0.0,0.0,0.0004
271810000000,84,271810000000,world,chassis,0.00467395095275,-0.00112426023482,0.0999999576536,-1.80142780309e-06,-9.8691120133e-08,0.00961249408572,0.99995379891,0.0004,0.0,0.0,0.0,0.0,0.0,0.0,0.0004,0.0,0.0,0.0,0.0,0.0,0.0,0.0004,0.0,0.0,0.0,0.0,0.0,0.0,0.0004,0.0,0.0,0.0,0.0,0.0,0.0,0.0004,0.0,0.0,0.0,0.0,0.0,0.0,0.0004,0.00379604060534,-0.0100939106354,0.00347298307267,-0.0258765807977,0.0090637956251,-0.0112400421243,0.0004,0.0,0.0,0.0,0.0,0.0,0.0,0.0004,0.0,0.0,0.0,0.0,0.0,0.0,0.0004,0.0,0.0,0.0,0.0,0.0,0.0,0.0004,0.0,0.0,0.0,0.0,0.0,0.0,0.0004,0.0,0.0,0.0,0.0,0.0,0.0,0.0004
271860000000,85,271860000000,world,chassis,0.00467481015811,-0.00112460165311,0.0999999576536,-1.80142771233e-06,-9.86946283379e-08,0.00961444038021,0.999953780198,0.0004,0.0,0.0,0.0,0.0,0.0,0.0,0.0004,0.0,0.0,0.0,0.0,0.0,0.0,0.0004,0.0,0.0,0.0,0.0,0.0,0.0,0.0004,0.0,0.0,0.0,0.0,0.0,0.0,0.0004,0.0,0.0,0.0,0.0,0.0,0.0,0.0004,-0.0046419348709,-0.00137427052637,-0.0360474277135,-0.040742619554,-0.00153908917832,0.00908644861852,0.0004,0.0,0.0,0.0,0.0,0.0,0.0,0.0004,0.0,0.0,0.0,0.0,0.0,0.0,0.0004,0.0,0.0,0.0,0.0,0.0,0.0,0.0004,0.0,0.0,0.0,0.0,0.0,0.0,0.0004,0.0,0.0,0.0,0.0,0.0,0.0,0.0004
271910000000,86,271910000000,world,chassis,0.00467566936476,-0.0011249430681,0.0999999576536,-1.80142762163e-06,-9.86981365428e-08,0.0096163866757,0.999953761483,0.0004,0.0,0.0,0.0,0.0,0.0,0.0,0.0004,0.0,0.0,0.0,0.0,0.0,0.0,0.0004,0.0,0.0,0.0,0.0,0.0,0.0,0.0004,0.0,0.0,0.0,0.0,0.0,0.0,0.0004,0.0,0.0,0.0,0.0,0.0,0.0,0.0004,-0.0153028199126,0.0126400753681,0.000129504710667,0.0248423867673,0.0176717272698,0.0157179634023,0.0004,0.0,0.0,0.0,0.0,0.0,0.0,0.0004,0.0,0.0,0.0,0.0,0.0,0.0,0.0004,0.0,0.0,0.0,0.0,0.0,0.0,0.0004,0.0,0.0,0.0,0.0,0.0,0.0,0.0004,0.0,0.0,0.0,0.0,0.0,0.0,0.0004
271960000000,87,271960000000,world,chassis,0.0046765285727,-0.00112528447979,0.0999999576536,-1.80142753089e-06,-9.87016447368e-08,0.00961833297222,0.999953742764,0.0004,0.0,0.0,0.0,0.0,0.0,0.0,0.0004,0.0,0.0,0.0,0.0,0.0,0.0,0.0004,0.0,0.0,0.0,0.0,0.0,0.0,0.0004,0.0,0.0,0.0,0.0,0.0,0.0,0.0004,0.0,0.0,0.0,0.0,0.0,0.0,0.0004,-0.0290584443144,0.0121716536275,0.000414410894844,0.0140467673526,0.016229101781,0.0149397640925,0.0004,0.0,0.0,0.0,0.0,0.0,0.0,0.0004,0.0,0.0,0.0,0.0,0.0,0.0,0.0004,0.0,0.0,0.0,0.0,0.0,0.0,0.0004,0.0,0.0,0.0,0.0,0.0,0.0,0.0004,0.0,0.0,0.0,0.0,0.0,0.0,0.0004
272010000000,88,272010000000,world,chassis,0.00467738778192,-0.00112562588818,0.0999999576536,-1.8014274402e-06,-9.87051530066e-08,0.00962027926975,0.999953724041,0.0004,0.0,0.0,0.0,0.0,0.0,0.0,0.0004,0.0,0.0,0.0,0.0,0.0,0.0,0.0004,0.0,0.0,0.0,0.0,0.0,0.0,0.0004,0.0,0.0,0.0,0.0,0.0,0.0,0.0004,0.0,0.0,0.0,0.0,0.0,0.0,0.0004,-0.0175883391777,-0.00337828543242,0.0101372696718,-0.00515885665534,-0.015662010719,-0.0133925582021,0.0004,0.0,0.0,0.0,0.0,0.0,0.0,0.0004,0.0,0.0,0.0,0.0,0.0,0.0,0.0004,0.0,0.0,0.0,0.0,0.0,0.0,0.0004,0.0,0.0,0.0,0.0,0.0,0.0,0.0004,0.0,0.0,0.0,0.0,0.0,0.0,0.0004
272060000000,89,272060000000,world,chassis,0.00467824699243,-0.00112596729327,0.0999999576536,-1.8014273495e-06,-9.87086611885e-08,0.0096222255683,0.999953705314,0.0004,0.0,0.0,0.0,0.0,0.0,0.0,0.0004,0.0,0.0,0.0,0.0,0.0,0.0,0.0004,0.0,0.0,0.0,0.0,0.0,0.0,0.0004,0.0,0.0,0.0,0.0,0.0,0.0,0.0004,0.0,0.0,0.0,0.0,0.0,0.0,0.0004,-0.0236032588564,-0.0358243712722,0.0122887895132,0.0192119979312,0.0439952966584,-0.00751349820633,0.0004,0.0,0.0,0.0,0.0,0.0,0.0,0.0004,0.0,0.0,0.0,0.0,0.0,0.0,0.0004,0.0,0.0,0.0,0.0,0.0,0.0,0.0004,0.0,0.0,0.0,0.0,0.0,0.0,0.0004,0.0,0.0,0.0,0.0,0.0,0.0,0.0004
272110000000,90,272110000000,world,chassis,0.00467910620423,-0.00112630869506,0.0999999576536,-1.80142725872e-06,-9.87121693649e-08,0.00962417186786,0.999953686584,0.0004,0.0,0.0,0.0,0.0,0.0,0.0,0.0004,0.0,0.0,0.0,0.0,0.0,0.0,0.0004,0.0,0.0,0.0,0.0,0.0,0.0,0.0004,0.0,0.0,0.0,0.0,0.0,0.0,0.0004,0.0,0.0,0.0,0.0,0.0,0.0,0.0004,0.0135961110935,0.0362795222801,0.0229487917843,0.00457686846315,-0.00694121993298,-0.0154788748462,0.0004,0.0,0.0,0.0,0.0,0.0,0.0,0.0004,0.0,0.0,0.0,0.0,0.0,0.0,0.0004,0.0,0.0,0.0,0.0,0.0,0.0,0.0004,0.0,0.0,0.0,0.0,0.0,0.0,0.0004,0.0,0.0,0.0,0.0,0.0,0.0,0.0004
272160000000,91,272160000000,world,chassis,0.00467996541731,-0.00112665009355,0.0999999576536,-1.80142716795e-06,-9.87156776268e-08,0.00962611816844,0.99995366785,0.0004,0.0,0.0,0.0,0.0,0.0,0.0,0.0004,0.0,0.0,0.0,0.0,0.0,0.0,0.0004,0.0,0.0,0.0,0.0,0.0,0.0,0.0004,0.0,0.0,0.0,0.0,0.0,0.0,0.0004,0.0,0.0,0.0,0.0,0.0,0.0,0.0004,-0.0207073044119,-0.0165105996565,-0.0164547496659,0.00756348145449,0.0234693995335,0.00630108150432,0.0004,0.0,0.0,0.0,0.0,0.0,0.0,0.0004,0.0,0.0,0.0,0.0,0.0,0.0,0.0004,0.0,0.0,0.0,0.0,0.0,0.0,0.0004,0.0,0.0,0.0,0.0,0.0,0.0,0.0004,0.0,0.0,0.0,0.0,0.0,0.0,0.0004
272210000000,92,272210000000,world,chassis,0.00468082463168,-0.00112699148875,0.0999999576536,-1.80142707718e-06,-9.8719185874e-08,0.00962806447003,0.999953649111,0.0004,0.0,0.0,0.0,0.0,0.0,0.0,0.0004,0.0,0.0,0.0,0.0,0.0,0.0,0.0004,0.0,0.0,0.0,0.0,0.0,0.0,0.0004,0.0,0.0,0.0,0.0,0.0,0.0,0.0004,0.0,0.0,0.0,0.0,0.0,0.0,0.0004,-0.026885023907,-0.00992063865359,-0.0341793629127,0.00693740529814,-0.0368230885318,-0.0256185184668,0.0004,0.0,0.0,0.0,0.0,0.0,0.0,0.0004,0.0,0.0,0.0,0.0,0.0,0.0,0.0004,0.0,0.0,0.0,0.0,0.0,0.0,0.0004,0.0,0.0,0.0,0.0,0.0,0.0,0.0004,0.0,0.0,0.0,0.0,0.0,0.0,0.0004
272260000000,93,272260000000,world,chassis,0.00468168384733,-0.00112733288064,0.0999999576536,-1.80142698636e-06,-9.87226941043e-08,0.00963001077265,0.99995363037,0.0004,0.0,0.0,0.0,0.0,0.0,0.0,0.0004,0.0,0.0,0.0,0.0,0.0,0.0,0.0004,0.0,0.0,0.0,0.0,0.0,0.0,0.0004,0.0,0.0,0.0,0.0,0.0,0.0,0.0004,0.0,0.0,0.0,0.0,0.0,0.0,0.0004,0.0118452668177,-0.0185167247033,-0.00780573474807,0.0348931116479,-0.00953094964845,0.00583987047599,0.0004,0.0,0.0,0.0,0.0,0.0,0.0,0.0004,0.0,0.0,0.0,0.0,0.0,0.0,0.0004,0.0,0.0,0.0,0.0,0.0,0.0,0.0004,0.0,0.0,0.0,0.0,0.0,0.0,0.0004,0.0,0.0,0.0,0.0,0.0,0.0,0.0004
272310000000,94,272310000000,world,chassis,0.00468254306427,-0.00112767426923,0.0999999576536,-1.80142689564e-06,-9.87262023302e-08,0.00963195707627,0.999953611624,0.0004,0.0,0.0,0.0,0.0,0.0,0.0,0.0004,0.0,0.0,0.0,0.0,0.0,0.0,0.0004,0.0,0.0,0.0,0.0,0.0,0.0,0.0004,0.0,0.0,0.0,0.0,0.0,0.0,0.0004,0.0,0.0,0.0,0.0,0.0,0.0,0.0004,0.00407985286807,0.0152070151453,0.0524688513237,-0.0448206728898,0.014292008084,0.0193635727875,0.0004,0.0,0.0,0.0,0.0,0.0,0.0,0.0004,0.0,0.0,0.0,0.0,0.0,0.0,0.0004,0.0,0.0,0.0,0.0,0.0,0.0,0.0004,0.0,0.0,0.0,0.0,0.0,0.0,0.0004,0.0,0.0,0.0,0.0,0.0,0.0,0.0004
272360000000,95,272360000000,world,chassis,0.0046834022825,-0.00112801565452,0.0999999576536,-1.80142680483e-06,-9.87297105409e-08,0.00963390338092,0.999953592874,0.0004,0.0,0.0,0.0,0.0,0.0,0.0,0.0004,0.0,0.0,0.0,0.0,0.0,0.0,0.0004,0.0,0.0,0.0,0.0,0.0,0.0,0.0004,0.0,0.0,0.0,0.0,0.0,0.0,0.0004,0.0,0.0,0.0,0.0,0.0,0.0,0.0004,0.010171099114,0.0227250391394,-0.0107360555994,0.00424287102117,-0.0302236003391,0.0323420749523,0.0004,0.0,0.0,0.0,0.0,0.0,0.0,0.0004,0.0,0.0,0.0,0.0,0.0,0.0,0.0004,0.0,0.0,0.0,0.0,0.0,0.0,0.0004,0.0,0.0,0.0,0.0,0.0,0.0,0.0004,0.0,0.0,0.0,0.0,0.0,0.0,0.0004
272410000000,96,272410000000,world,chassis,0.00468426150201,-0.00112835703652,0.0999999576536,-1.80142671402e-06,-9.87332187492e-08,0.00963584968658,0.999953574121,0.0004,0.0,0.0,0.0,0.0,0.0,0.0,0.0004,0.0,0.0,0.0,0.0,0.0,0.0,0.0004,0.0,0.0,0.0,0.0,0.0,0.0,0.0004,0.0,0.0,0.0,0.0,0.0,0.0,0.0004,0.0,0.0,0.0,0.0,0.0,0.0,0.0004,0.0163912986239,0.0302063299847,-0.0215898326308,0.017157792547,0.015130341382,-0.0152793382193,0.0004,0.0,0.0,0.0,0.0,0.0,0.0,0.0004,0.0,0.0,0.0,0.0,0.0,0.0,0.0004,0.0,0.0,0.0,0.0,0.0,0.0,0.0004,0.0,0.0,0.0,0.0,0.0,0.0,0.0004,0.0,0.0,0.0,0.0,0.0,0.0,0.0004
272460000000,97,272460000000,world,chassis,0.00468512072281,-0.00112869841521,0.0999999576536,-1.80142662328e-06,-9.87367270306e-08,0.00963779599325,0.999953555364,0.0004,0.0,0.0,0.0,0.0,0.0,0.0,0.0004,0.0,0.0,0.0,0.0,0.0,0.0,0.0004,0.0,0.0,0.0,0.0,0.0,0.0,0.0004,0.0,0.0,0.0,0.0,0.0,0.0,0.0004,0.0,0.0,0.0,0.0,0.0,0.0,0.0004,0.00326182612382,0.0123711674783,0.0257906981607,0.0011936319125,-0.0379151370623,0.00255251839691,0.0004,0.0,0.0,0.0,0.0,0.0,0.0,0.0004,0.0,0.0,0.0,0.0,0.0,0.0,0.0004,0.0,0.0,0.0,0.0,0.0,0.0,0.0004,0.0,0.0,0.0,0.0,0.0,0.0,0.0004,0.0,0.0,0.0,0.0,0.0,0.0,0.0004
272510000000,98,272510000000,world,chassis,0.0046859799449,-0.00112903979061,0.0999999576536,-1.80142653244e-06,-9.87402352075e-08,0.00963974230095,0.999953536603,0.0004,0.0,0.0,0.0,0.0,0.0,0.0,0.0004,0.0,0.0,0.0,0.0,0.0,0.0,0.0004,0.0,0.0,0.0,0.0,0.0,0.0,0.0004,0.0,0.0,0.0,0.0,0.0,0.0,0.0004,0.0,0.0,0.0,0.0,0.0,0.0,0.0004,-0.0204814627192,-0.0243217239794,0.0330122708534,-0.0119553536487,0.0050209703904,-0.0177038798151,0.0004,0.0,0.0,0.0,0.0,0.0,0.0,0.0004,0.0,0.0,0.0,0.0,0.0,0.0,0.0004,0.0,0.0,0.0,0.0,0.0,0.0,0.0004,0.0,0.0,0.0,0.0,0.0,0.0,0.0004,0.0,0.0,0.0,0.0,0.0,0.0,0.0004
272560000000,99,272560000000,world,chassis,0.00468683916827,-0.0011293811627,0.0999999576536,-1.80142644162e-06,-9.87437434754e-08,0.00964168860965,0.999953517838,0.0004,0.0,0.0,0.0,0.0,0.0,0.0,0.0004,0.0,0.0,0.0,0.0,0.0,0.0,0.0004,0.0,0.0,0.0,0.0,0.0,0.0,0.0004,0.0,0.0,0.0,0.0,0.0,0.0,0.0004,0.0,0.0,0.0,0.0,0.0,0.0,0.0004,-0.0364110968998,-1.51183513851e-05,0.024593844295,0.0163358517252,-0.0359506280537,-0.00429224607232,0.0004,0.0,0.0,0.0,0.0,0.0,0.0,0.0004,0.0,0.0,0.0,0.0,0.0,0.0,0.0004,0.0,0.0,0.0,0.0,0.0,0.0,0.0004,0.0,0.0,0.0,0.0,0.0,0.0,0.0004,0.0,0.0,0.0,0.0,0.0,0.0,0.0004
272610000000,100,272610000000,world,chassis,0.00468769839293,-0.0011297225315,0.0999999576536,-1.80142635086e-06,-9.87472517355e-08,0.00964363491938,0.99995349907,0.0004,0.0,0.0,0.0,0.0,0.0,0.0,0.0004,0.0,0.0,0.0,0.0,0.0,0.0,0.0004,0.0,0.0,0.0,0.0,0.0,0.0,0.0004,0.0,0.0,0.0,0.0,0.0,0.0,0.0004,0.0,0.0,0.0,0.0,0.0,0.0,0.0004,-0.0123485869258,-0.0113791083126,0.0373667095514,0.00732796283435,-0.0302232898238,0.00590802438716,0.0004,0.0,0.0,0.0,0.0,0.0,0.0,0.0004,0.0,0.0,0.0,0.0,0.0,0.0,0.0004,0.0,0.0,0.0,0.0,0.0,0.0,0.0004,0.0,0.0,0.0,0.0,0.0,0.0,0.0004,0.0,0.0,0.0,0.0,0.0,0.0,0.0004
272660000000,101,272660000000,world,chassis,0.00468855761887,-0.00113006389699,0.0999999576536,-1.80142625997e-06,-9.87507599777e-08,0.00964558123012,0.999953480298,0.0004,0.0,0.0,0.0,0.0,0.0,0.0,0.0004,0.0,0.0,0.0,0.0,0.0,0.0,0.0004,0.0,0.0,0.0,0.0,0.0,0.0,0.0004,0.0,0.0,0.0,0.0,0.0,0.0,0.0004,0.0,0.0,0.0,0.0,0.0,0.0,0.0004,0.0111838543662,0.00453427260594,-0.0226398596993,0.0119392431323,-0.0192090215103,-0.0239252777981,0.0004,0.0,0.0,0.0,0.0,0.0,0.0,0.0004,0.0,0.0,0.0,0.0,0.0,0.0,0.0004,0.0,0.0,0.0,0.0,0.0,0.0,0.0004,0.0,0.0,0.0,0.0,0.0,0.0,0.0004,0.0,0.0,0.0,0.0,0.0,0.0,0.0004
272710000000,102,272710000000,world,chassis,0.0046894168461,-0.00113040525919,0.0999999576536,-1.80142616916e-06,-9.87542682056e-08,0.00964752754188,0.999953461522,0.0004,0.0,0.0,0.0,0.0,0.0,0.0,0.0004,0.0,0.0,0.0,0.0,0.0,0.0,0.0004,0.0,0.0,0.0,0.0,0.0,0.0,0.0004,0.0,0.0,0.0,0.0,0.0,0.0,0.0004,0.0,0.0,0.0,0.0,0.0,0.0,0.0004,-0.00633128897191,-0.0359303440758,0.0201216751051,-0.0104958809041,-0.00118553488054,-0.00463865837169,0.0004,0.0,0.0,0.0,0.0,0.0,0.0,0.0004,0.0,0.0,0.0,0.0,0.0,0.0,0.0004,0.0,0.0,0.0,0.0,0.0,0.0,0.0004,0.0,0.0,0.0,0.0,0.0,0.0,0.0004,0.0,0.0,0.0,0.0,0.0,0.0,0.0004
272760000000,103,272760000000,world,chassis,0.00469027607462,-0.00113074661808,0.0999999576536,-1.80142607829e-06,-9.87577764141e-08,0.00964947385465,0.999953442742,0.0004,0.0,0.0,0.0,0.0,0.0,0.0,0.0004,0.0,0.0,0.0,0.0,0.0,0.0,0.0004,0.0,0.0,0.0,0.0,0.0,0.0,0.0004,0.0,0.0,0.0,0.0,0.0,0.0,0.0004,0.0,0.0,0.0,0.0,0.0,0.0,0.0004,-9.24390940572e-05,-0.00805294088076,0.0240153863346,-0.0139485617585,-0.024062873753,-0.0115029901255,0.0004,0.0,0.0,0.0,0.0,0.0,0.0,0.0004,0.0,0.0,0.0,0.0,0.0,0.0,0.0004,0.0,0.0,0.0,0.0,0.0,0.0,0.0004,0.0,0.0,0.0,0.0,0.0,0.0,0.0004,0.0,0.0,0.0,0.0,0.0,0.0,0.0004
272810000000,104,272810000000,world,chassis,0.00469113530442,-0.00113108797368,0.0999999576536,-1.80142598743e-06,-9.87612846188e-08,0.00965142016844,0.999953423958,0.0004,0.0,0.0,0.0,0.0,0.0,0.0,0.0004,0.0,0.0,0.0,0.0,0.0,0.0,0.0004,0.0,0.0,0.0,0.0,0.0,0.0,0.0004,0.0,0.0,0.0,0.0,0.0,0.0,0.0004,0.0,0.0,0.0,0.0,0.0,0.0,0.0004,0.0148163288094,0.0100507914974,0.0321823951071,-0.00567921906089,0.0113087811738,-0.0155305552887,0.0004,0.0,0.0,0.0,0.0,0.0,0.0,0.0004,0.0,0.0,0.0,0.0,0.0,0.0,0.0004,0.0,0.0,0.0,0.0,0.0,0.0,0.0004,0.0,0.0,0.0,0.0,0.0,0.0,0.0004,0.0,0.0,0.0,0.0,0.0,0.0,0.0004
272860000000,105,272860000000,world,chassis,0.00469199453551,-0.00113142932597,0.0999999576536,-1.80142589662e-06,-9.87647928998e-08,0.00965336648325,0.999953405171,0.0004,0.0,0.0,0.0,0.0,0.0,0.0,0.0004,0.0,0.0,0.0,0.0,0.0,0.0,0.0004,0.0,0.0,0.0,0.0,0.0,0.0,0.0004,0.0,0.0,0.0,0.0,0.0,0.0,0.0004,0.0,0.0,0.0,0.0,0.0,0.0,0.0004,-0.00291233192848,0.0194155873226,-0.0179462553538,-0.0144397833276,-0.0116132000443,-0.00570345778263,0.0004,0.0,0.0,0.0,0.0,0.0,0.0,0.0004,0.0,0.0,0.0,0.0,0.0,0.0,0.0004,0.0,0.0,0.0,0.0,0.0,0.0,0.0004,0.0,0.0,0.0,0.0,0.0,0.0,0.0004,0.0,0.0,0.0,0.0,0.0,0.0,0.0004
272910000000,106,272910000000,world,chassis,0.00469285376789,-0.00113177067497,0.0999999576536,-1.80142580569e-06,-9.87683011808e-08,0.00965531279907,0.999953386379,0.0004,0.0,0.0,0.0,0.0,0.0,0.0,0.0004,0.0,0.0,0.0,0.0,0.0,0.0,0.0004,0.0,0.0,0.0,0.0,0.0,0.0,0.0004,0.0,0.0,0.0,0.0,0.0,0.0,0.0004,0.0,0.0,0.0,0.0,0.0,0.0,0.0004,0.0121784327802,0.00612958941707,-0.00923133230621,-0.00239517520517,-0.00361442196301,-0.0179351186734,0.0004,0.0,0.0,0.0,0.0,0.0,0.0,0.0004,0.0,0.0,0.0,0.0,0.0,0.0,0.0004,0.0,0.0,0.0,0.0,0.0,0.0,0.0004,0.0,0.0,0.0,0.0,0.0,0.0,0.0004,0.0,0.0,0.0,0.0,0.0,0.0,0.0004
272960000000,107,272960000000,world,chassis,0.00469371300155,-0.00113211202067,0.0999999576536,-1.80142571489e-06,-9.87718094537e-08,0.0096572591159,0.999953367584,0.0004,0.0,0.0,0.0,0.0,0.0,0.0,0.0004,0.0,0.0,0.0,0.0,0.0,0.0,0.0004,0.0,0.0,0.0,0.0,0.0,0.0,0.0004,0.0,0.0,0.0,0.0,0.0,0.0,0.0004,0.0,0.0,0.0,0.0,0.0,0.0,0.0004,0.0231980240413,0.0099669849709,-0.00399213723908,0.0022663029435,0.010702801857,-0.0524195492925,0.0004,0.0,0.0,0.0,0.0,0.0,0.0,0.0004,0.0,0.0,0.0,0.0,0.0,0.0,0.0004,0.0,0.0,0.0,0.0,0.0,0.0,0.0004,0.0,0.0,0.0,0.0,0.0,0.0,0.0004,0.0,0.0,0.0,0.0,0.0,0.0,0.0004
273010000000,108,273010000000,world,chassis,0.0046945722365,-0.00113245336306,0.0999999576536,-1.80142562399e-06,-9.87753177095e-08,0.00965920543376,0.999953348785,0.0004,0.0,0.0,0.0,0.0,0.0,0.0,0.0004,0.0,0.0,0.0,0.0,0.0,0.0,0.0004,0.0,0.0,0.0,0.0,0.0,0.0,0.0004,0.0,0.0,0.0,0.0,0.0,0.0,0.0004,0.0,0.0,0.0,0.0,0.0,0.0,0.0004,-0.0123146451843,-0.00709006051604,0.0145524296758,-0.0110379713836,0.0245415889485,0.0167182536916,0.0004,0.0,0.0,0.0,0.0,0.0,0.0,0.0004,0.0,0.0,0.0,0.0,0.0,0.0,0.0004,0.0,0.0,0.0,0.0,0.0,0.0,0.0004,0.0,0.0,0.0,0.0,0.0,0.0,0.0004,0.0,0.0,0.0,0.0,0.0,0.0,0.0004
273060000000,109,273060000000,world,chassis,0.00469543147273,-0.00113279470216,0.0999999576536,-1.80142553316e-06,-9.87788258863e-08,0.00966115175263,0.999953329983,0.0004,0.0,0.0,0.0,0.0,0.0,0.0,0.0004,0.0,0.0,0.0,0.0,0.0,0.0,0.0004,0.0,0.0,0.0,0.0,0.0,0.0,0.0004,0.0,0.0,0.0,0.0,0.0,0.0,0.0004,0.0,0.0,0.0,0.0,0.0,0.0,0.0004,-0.0315598392274,0.00738320299095,-0.0269782767118,0.00366704176137,-0.0198981926714,-0.0123839265824,0.0004,0.0,0.0,0.0,0.0,0.0,0.0,0.0004,0.0,0.0,0.0,0.0,0.0,0.0,0.0004,0.0,0.0,0.0,0.0,0.0,0.0,0.0004,0.0,0.0,0.0,0.0,0.0,0.0,0.0004,0.0,0.0,0.0,0.0,0.0,0.0,0.0004
273110000000,110,273110000000,world,chassis,0.00469629071025,-0.00113313603796,0.0999999576536,-1.80142544226e-06,-9.87823341374e-08,0.00966309807251,0.999953311176,0.0004,0.0,0.0,0.0,0.0,0.0,0.0,0.0004,0.0,0.0,0.0,0.0,0.0,0.0,0.0004,0.0,0.0,0.0,0.0,0.0,0.0,0.0004,0.0,0.0,0.0,0.0,0.0,0.0,0.0004,0.0,0.0,0.0,0.0,0.0,0.0,0.0004,-0.0284418046433,0.00249325076815,-0.00279212855631,0.0323460308376,-0.00289489647677,-0.00129739533442,0.0004,0.0,0.0,0.0,0.0,0.0,0.0,0.0004,0.0,0.0,0.0,0.0,0.0,0.0,0.0004,0.0,0.0,0.0,0.0,0.0,0.0,0.0004,0.0,0.0,0.0,0.0,0.0,0.0,0.0004,0.0,0.0,0.0,0.0,0.0,0.0,0.0004
273160000000,111,273160000000,world,chassis,0.00469714994906,-0.00113347737046,0.0999999576536,-1.80142535132e-06,-9.87858424699e-08,0.00966504439342,0.999953292366,0.0004,0.0,0.0,0.0,0.0,0.0,0.0,0.0004,0.0,0.0,0.0,0.0,0.0,0.0,0.0004,0.0,0.0,0.0,0.0,0.0,0.0,0.0004,0.0,0.0,0.0,0.0,0.0,0.0,0.0004,0.0,0.0,0.0,0.0,0.0,0.0,0.0004,-0.00227393874407,-0.0149218559658,-0.0203985256524,0.000532153082419,0.0254661063242,-0.0163064782634,0.0004,0.0,0.0,0.0,0.0,0.0,0.0,0.0004,0.0,0.0,0.0,0.0,0.0,0.0,0.0004,0.0,0.0,0.0,0.0,0.0,0.0,0.0004,0.0,0.0,0.0,0.0,0.0,0.0,0.0004,0.0,0.0,0.0,0.0,0.0,0.0,0.0004
273210000000,112,273210000000,world,chassis,0.00469800918915,-0.00113381869966,0.0999999576536,-1.80142526043e-06,-9.87893506977e-08,0.00966699071533,0.999953273552,0.0004,0.0,0.0,0.0,0.0,0.0,0.0,0.0004,0.0,0.0,0.0,0.0,0.0,0.0,0.0004,0.0,0.0,0.0,0.0,0.0,0.0,0.0004,0.0,0.0,0.0,0.0,0.0,0.0,0.0004,0.0,0.0,0.0,0.0,0.0,0.0,0.0004,-0.00346939723576,-0.00345511809166,-0.0324308325117,0.00210746646686,-0.0280825933335,-0.00181898015285,0.0004,0.0,0.0,0.0,0.0,0.0,0.0,0.0004,0.0,0.0,0.0,0.0,0.0,0.0,0.0004,0.0,0.0,0.0,0.0,0.0,0.0,0.0004,0.0,0.0,0.0,0.0,0.0,0.0,0.0004,0.0,0.0,0.0,0.0,0.0,0.0,0.0004
273260000000,113,273260000000,world,chassis,0.00469886843053,-0.00113416002555,0.0999999576536,-1.80142516953e-06,-9.87928589965e-08,0.00966893703827,0.999953254734,0.0004,0.0,0.0,0.0,0.0,0.0,0.0,0.0004,0.0,0.0,0.0,0.0,0.0,0.0,0.0004,0.0,0.0,0.0,0.0,0.0,0.0,0.0004,0.0,0.0,0.0,0.0,0.0,0.0,0.0004,0.0,0.0,0.0,0.0,0.0,0.0,0.0004,0.00346153204092,-0.0223997365561,-0.0336045029189,0.00171708052271,0.00931444863511,-0.00124613056923,0.0004,0.0,0.0,0.0,0.0,0.0,0.0,0.0004,0.0,0.0,0.0,0.0,0.0,0.0,0.0004,0.0,0.0,0.0,0.0,0.0,0.0,0.0004,0.0,0.0,0.0,0.0,0.0,0.0,0.0004,0.0,0.0,0.0,0.0,0.0,0.0,0.0004
273310000000,114,273310000000,world,chassis,0.0046997276732,-0.00113450134815,0.0999999576536,-1.80142507862e-06,-9.87963672051e-08,0.00967088336222,0.999953235912,0.0004,0.0,0.0,0.0,0.0,0.0,0.0,0.0004,0.0,0.0,0.0,0.0,0.0,0.0,0.0004,0.0,0.0,0.0,0.0,0.0,0.0,0.0004,0.0,0.0,0.0,0.0,0.0,0.0,0.0004,0.0,0.0,0.0,0.0,0.0,0.0,0.0004,0.0119716217576,-0.0217321023788,0.0205048751333,-0.0422261632588,0.0149478747219,0.0523272443905,0.0004,0.0,0.0,0.0,0.0,0.0,0.0,0.0004,0.0,0.0,0.0,0.0,0.0,0.0,0.0004,0.0,0.0,0.0,0.0,0.0,0.0,0.0004,0.0,0.0,0.0,0.0,0.0,0.0,0.0004,0.0,0.0,0.0,0.0,0.0,0.0,0.0004
273360000000,115,273360000000,world,chassis,0.00470058691715,-0.00113484266745,0.0999999576536,-1.80142498772e-06,-9.87998754901e-08,0.00967282968718,0.999953217087,0.0004,0.0,0.0,0.0,0.0,0.0,0.0,0.0004,0.0,0.0,0.0,0.0,0.0,0.0,0.0004,0.0,0.0,0.0,0.0,0.0,0.0,0.0004,0.0,0.0,0.0,0.0,0.0,0.0,0.0004,0.0,0.0,0.0,0.0,0.0,0.0,0.0004,0.0124133378758,0.0169510872174,0.013692579953,0.0135609781116,-0.00366209362441,-0.00419437051265,0.0004,0.0,0.0,0.0,0.0,0.0,0.0,0.0004,0.0,0.0,0.0,0.0,0.0,0.0,0.0004,0.0,0.0,0.0,0.0,0.0,0.0,0.0004,0.0,0.0,0.0,0.0,0.0,0.0,0.0004,0.0,0.0,0.0,0.0,0.0,0.0,0.0004
273410000000,116,273410000000,world,chassis,0.00470144616239,-0.00113518398345,0.0999999576536,-1.80142489673e-06,-9.88033837658e-08,0.00967477601317,0.999953198258,0.0004,0.0,0.0,0.0,0.0,0.0,0.0,0.0004,0.0,0.0,0.0,0.0,0.0,0.0,0.0004,0.0,0.0,0.0,0.0,0.0,0.0,0.0004,0.0,0.0,0.0,0.0,0.0,0.0,0.0004,0.0,0.0,0.0,0.0,0.0,0.0,0.0004,-0.00675618348227,0.00412222803253,0.0153329474882,-0.0252585803132,0.00397335770709,0.0207968423791,0.0004,0.0,0.0,0.0,0.0,0.0,0.0,0.0004,0.0,0.0,0.0,0.0,0.0,0.0,0.0004,0.0,0.0,0.0,0.0,0.0,0.0,0.0004,0.0,0.0,0.0,0.0,0.0,0.0,0.0004,0.0,0.0,0.0,0.0,0.0,0.0,0.0004
273460000000,117,273460000000,world,chassis,0.00470230540891,-0.00113552529615,0.0999999576536,-1.80142480583e-06,-9.88068920398e-08,0.00967672234016,0.999953179425,0.0004,0.0,0.0,0.0,0.0,0.0,0.0,0.0004,0.0,0.0,0.0,0.0,0.0,0.0,0.0004,0.0,0.0,0.0,0.0,0.0,0.0,0.0004,0.0,0.0,0.0,0.0,0.0,0.0,0.0004,0.0,0.0,0.0,0.0,0.0,0.0,0.0004,0.00198048071724,-0.011534092028,0.014321470674,-0.0281877635543,-0.00368029891392,0.030902990456,0.0004,0.0,0.0,0.0,0.0,0.0,0.0,0.0004,0.0,0.0,0.0,0.0,0.0,0.0,0.0004,0.0,0.0,0.0,0.0,0.0,0.0,0.0004,0.0,0.0,0.0,0.0,0.0,0.0,0.0004,0.0,0.0,0.0,0.0,0.0,0.0,0.0004
273510000000,118,273510000000,world,chassis,0.00470316465672,-0.00113586660555,0.0999999576536,-1.80142471497e-06,-9.88104002905e-08,0.00967866866818,0.999953160588,0.0004,0.0,0.0,0.0,0.0,0.0,0.0,0.0004,0.0,0.0,0.0,0.0,0.0,0.0,0.0004,0.0,0.0,0.0,0.0,0.0,0.0,0.0004,0.0,0.0,0.0,0.0,0.0,0.0,0.0004,0.0,0.0,0.0,0.0,0.0,0.0,0.0004,-0.00872820030964,0.00409137430523,0.00466217862081,-0.00647485680821,0.013095785643,0.0288683972136,0.0004,0.0,0.0,0.0,0.0,0.0,0.0,0.0004,0.0,0.0,0.0,0.0,0.0,0.0,0.0004,0.0,0.0,0.0,0.0,0.0,0.0,0.0004,0.0,0.0,0.0,0.0,0.0,0.0,0.0004,0.0,0.0,0.0,0.0,0.0,0.0,0.0004
273560000000,119,273560000000,world,chassis,0.00479074467684,-0.00113458279855,0.100000552724,-1.42124363728e-06,-1.94019616093e-06,0.00968326303277,0.999953116107,0.0004,0.0,0.0,0.0,0.0,0.0,0.0,0.0004,0.0,0.0,0.0,0.0,0.0,0.0,0.0004,0.0,0.0,0.0,0.0,0.0,0.0,0.0004,0.0,0.0,0.0,0.0,0.0,0.0,0.0004,0.0,0.0,0.0,0.0,0.0,0.0,0.0004,0.0079738925176,-0.037674354149,0.0127106691439,-0.00322948936582,-0.00563718158913,-0.00276510361777,0.0004,0.0,0.0,0.0,0.0,0.0,0.0,0.0004,0.0,0.0,0.0,0.0,0.0,0.0,0.0004,0.0,0.0,0.0,0.0,0.0,0.0,0.0004,0.0,0.0,0.0,0.0,0.0,0.0,0.0004,0.0,0.0,0.0,0.0,0.0,0.0,0.0004
273610000000,120,273610000000,world,chassis,0.00582540939102,-0.00111479810286,0.100000532676,-1.32035157863e-06,-1.87258112005e-06,0.00971236916229,0.999952833828,0.0004,0.0,0.0,0.0,0.0,0.0,0.0,0.0004,0.0,0.0,0.0,0.0,0.0,0.0,0.0004,0.0,0.0,0.0,0.0,0.0,0.0,0.0004,0.0,0.0,0.0,0.0,0.0,0.0,0.0004,0.0,0.0,0.0,0.0,0.0,0.0,0.0004,0.037974067099,-0.0288661217462,0.000633860115183,0.0186623518407,0.0153532761132,-0.00689048960175,0.0004,0.0,0.0,0.0,0.0,0.0,0.0,0.0004,0.0,0.0,0.0,0.0,0.0,0.0,0.0004,0.0,0.0,0.0,0.0,0.0,0.0,0.0004,0.0,0.0,0.0,0.0,0.0,0.0,0.0004,0.0,0.0,0.0,0.0,0.0,0.0,0.0004
273660000000,121,273660000000,world,chassis,0.00802684443622,-0.00107222573227,0.100000490691,-1.06786328378e-06,-1.73021376134e-06,0.00976869566512,0.999952285152,0.0004,0.0,0.0,0.0,0.0,0.0,0.0,0.0004,0.0,0.0,0.0,0.0,0.0,0.0,0.0004,0.0,0.0,0.0,0.0,0.0,0.0,0.0004,0.0,0.0,0.0,0.0,0.0,0.0,0.0004,0.0,0.0,0.0,0.0,0.0,0.0,0.0004,0.0959442604814,-0.0527236705617,-0.0121020094895,-0.0064198114849,0.00292604947806,0.00260873265323,0.0004,0.0,0.0,0.0,0.0,0.0,0.0,0.0004,0.0,0.0,0.0,0.0,0.0,0.0,0.0004,0.0,0.0,0.0,0.0,0.0,0.0,0.0004,0.0,0.0,0.0,0.0,0.0,0.0,0.0004,0.0,0.0,0.0,0.0,0.0,0.0,0.0004
273710000000,122,273710000000,world,chassis,0.0113950407377,-0.00100648027893,0.10000042478,-6.71682265122e-07,-1.50665885824e-06,0.00985222991649,0.999951465604,0.0004,0.0,0.0,0.0,0.0,0.0,0.0,0.0004,0.0,0.0,0.0,0.0,0.0,0.0,0.0004,0.0,0.0,0.0,0.0,0.0,0.0,0.0004,0.0,0.0,0.0,0.0,0.0,0.0,0.0004,0.0,0.0,0.0,0.0,0.0,0.0,0.0004,0.0818373753936,-0.0144169047526,-0.000611771679199,0.00848453998931,0.00597791573185,-0.0364836387597,0.0004,0.0,0.0,0.0,0.0,0.0,0.0,0.0004,0.0,0.0,0.0,0.0,0.0,0.0,0.0004,0.0,0.0,0.0,0.0,0.0,0.0,0.0004,0.0,0.0,0.0,0.0,0.0,0.0,0.0004,0.0,0.0,0.0,0.0,0.0,0.0,0.0004
273760000000,123,273760000000,world,chassis,0.0159299851457,-0.000916992005836,0.100000332924,-1.19857975851e-07,-1.19499407287e-06,0.0099629592453,0.999950368489,0.0004,0.0,0.0,0.0,0.0,0.0,0.0,0.0004,0.0,0.0,0.0,0.0,0.0,0.0,0.0004,0.0,0.0,0.0,0.0,0.0,0.0,0.0004,0.0,0.0,0.0,0.0,0.0,0.0,0.0004,0.0,0.0,0.0,0.0,0.0,0.0,0.0004,0.141832024917,-0.00853217657587,-0.00862100960268,-0.00805897508883,-0.0133974729373,0.0182015380366,0.0004,0.0,0.0,0.0,0.0,0.0,0.0,0.0004,0.0,0.0,0.0,0.0,0.0,0.0,0.0004,0.0,0.0,0.0,0.0,0.0,0.0,0.0004,0.0,0.0,0.0,0.0,0.0,0.0,0.0004,0.0,0.0,0.0,0.0,0.0,0.0,0.0004
273810000000,124,273810000000,world,chassis,0.0216316596477,-0.000803001505838,0.100000212622,6.02393789005e-07,-7.86638475068e-07,0.010100866143,0.99994898495,0.0004,0.0,0.0,0.0,0.0,0.0,0.0,0.0004,0.0,0.0,0.0,0.0,0.0,0.0,0.0004,0.0,0.0,0.0,0.0,0.0,0.0,0.0004,0.0,0.0,0.0,0.0,0.0,0.0,0.0004,0.0,0.0,0.0,0.0,0.0,0.0,0.0004,0.141497153016,-0.0306484648725,-0.0143301328938,0.020322260906,-0.0149298009649,0.0162117256546,0.0004,0.0,0.0,0.0,0.0,0.0,0.0,0.0004,0.0,0.0,0.0,0.0,0.0,0.0,0.0004,0.0,0.0,0.0,0.0,0.0,0.0,0.0004,0.0,0.0,0.0,0.0,0.0,0.0,0.0004,0.0,0.0,0.0,0.0,0.0,0.0,0.0004
273860000000,125,273860000000,world,chassis,0.0285000410054,-0.000663559670651,0.100000061106,1.51143311024e-06,-2.72066313284e-07,0.0102659276486,0.999947303975,0.0004,0.0,0.0,0.0,0.0,0.0,0.0,0.0004,0.0,0.0,0.0,0.0,0.0,0.0,0.0004,0.0,0.0,0.0,0.0,0.0,0.0,0.0004,0.0,0.0,0.0,0.0,0.0,0.0,0.0004,0.0,0.0,0.0,0.0,0.0,0.0,0.0004,0.160552245936,-0.0123862922556,0.0328941644285,0.0286017523305,-0.00178559335331,0.0438184441127,0.0004,0.0,0.0,0.0,0.0,0.0,0.0,0.0004,0.0,0.0,0.0,0.0,0.0,0.0,0.0004,0.0,0.0,0.0,0.0,0.0,0.0,0.0004,0.0,0.0,0.0,0.0,0.0,0.0,0.0004,0.0,0.0,0.0,0.0,0.0,0.0,0.0004
273910000000,126,273910000000,world,chassis,0.0365335622128,-0.00049757052318,0.0999999689087,2.73484497527e-06,-3.05270897841e-08,0.010457314646,0.999945320787,0.0004,0.0,0.0,0.0,0.0,0.0,0.0,0.0004,0.0,0.0,0.0,0.0,0.0,0.0,0.0004,0.0,0.0,0.0,0.0,0.0,0.0,0.0004,0.0,0.0,0.0,0.0,0.0,0.0,0.0004,0.0,0.0,0.0,0.0,0.0,0.0,0.0004,0.148132311284,0.0218625631651,-0.00761234607233,0.00584933431499,0.00951003157514,0.0055986106372,0.0004,0.0,0.0,0.0,0.0,0.0,0.0,0.0004,0.0,0.0,0.0,0.0,0.0,0.0,0.0004,0.0,0.0,0.0,0.0,0.0,0.0,0.0004,0.0,0.0,0.0,0.0,0.0,0.0,0.0004,0.0,0.0,0.0,0.0,0.0,0.0,0.0004
273960000000,127,273960000000,world,chassis,0.0457336463342,-0.000303661657801,0.0999999728509,4.22703402818e-06,-6.41248169422e-09,0.0106753011626,0.99994301734,0.0004,0.0,0.0,0.0,0.0,0.0,0.0,0.0004,0.0,0.0,0.0,0.0,0.0,0.0,0.0004,0.0,0.0,0.0,0.0,0.0,0.0,0.0004,0.0,0.0,0.0,0.0,0.0,0.0,0.0004,0.0,0.0,0.0,0.0,0.0,0.0,0.0004,0.21773506454,0.0354349271286,-0.0156713517679,-0.0303571194021,0.0161782672247,-0.00669057845346,0.0004,0.0,0.0,0.0,0.0,0.0,0.0,0.0004,0.0,0.0,0.0,0.0,0.0,0.0,0.0004,0.0,0.0,0.0,0.0,0.0,0.0,0.0004,0.0,0.0,0.0,0.0,0.0,0.0,0.0004,0.0,0.0,0.0,0.0,0.0,0.0,0.0004
274010000000,128,274010000000,world,chassis,0.0561003306527,-8.03110165808e-05,0.099999977456,5.97323307761e-06,2.25585072161e-08,0.0109202799788,0.999940371947,0.0004,0.0,0.0,0.0,0.0,0.0,0.0,0.0004,0.0,0.0,0.0,0.0,0.0,0.0,0.0004,0.0,0.0,0.0,0.0,0.0,0.0,0.0004,0.0,0.0,0.0,0.0,0.0,0.0,0.0004,0.0,0.0,0.0,0.0,0.0,0.0,0.0004,0.226132077542,-0.0207140662615,-0.0300861372222,-0.0283444449239,0.0134590615659,0.0277816309685,0.0004,0.0,0.0,0.0,0.0,0.0,0.0,0.0004,0.0,0.0,0.0,0.0,0.0,0.0,0.0004,0.0,0.0,0.0,0.0,0.0,0.0,0.0004,0.0,0.0,0.0,0.0,0.0,0.0,0.0004,0.0,0.0,0.0,0.0,0.0,0.0,0.0004
274060000000,129,274060000000,world,chassis,0.0676335654421,0.000174188903001,0.0999999827236,7.97445234937e-06,5.67244831566e-08,0.011192188506,0.999937365465,0.0004,0.0,0.0,0.0,0.0,0.0,0.0,0.0004,0.0,0.0,0.0,0.0,0.0,0.0,0.0004,0.0,0.0,0.0,0.0,0.0,0.0,0.0004,0.0,0.0,0.0,0.0,0.0,0.0,0.0004,0.0,0.0,0.0,0.0,0.0,0.0,0.0004,0.232415444212,-0.0132721628962,-0.0209847526217,-0.00730783511831,-0.0339065017599,-0.0272628463029,0.0004,0.0,0.0,0.0,0.0,0.0,0.0,0.0004,0.0,0.0,0.0,0.0,0.0,0.0,0.0004,0.0,0.0,0.0,0.0,0.0,0.0,0.0004,0.0,0.0,0.0,0.0,0.0,0.0,0.0004,0.0,0.0,0.0,0.0,0.0,0.0,0.0004
274110000000,130,274110000000,world,chassis,0.0803332932954,0.000461735140838,0.0999999886177,1.02183376381e-05,9.62436634993e-08,0.0114909572951,0.999933976718,0.0004,0.0,0.0,0.0,0.0,0.0,0.0,0.0004,0.0,0.0,0.0,0.0,0.0,0.0,0.0004,0.0,0.0,0.0,0.0,0.0,0.0,0.0004,0.0,0.0,0.0,0.0,0.0,0.0,0.0004,0.0,0.0,0.0,0.0,0.0,0.0,0.0004,0.287129990945,0.00109935730522,0.0149833084201,0.0263228163076,-0.00158267013131,-0.0206381635327,0.0004,0.0,0.0,0.0,0.0,0.0,0.0,0.0004,0.0,0.0,0.0,0.0,0.0,0.0,0.0004,0.0,0.0,0.0,0.0,0.0,0.0,0.0004,0.0,0.0,0.0,0.0,0.0,0.0,0.0004,0.0,0.0,0.0,0.0,0.0,0.0,0.0004
274160000000,131,274160000000,world,chassis,0.0941994489787,0.000784413934924,0.0999999950548,1.26748615582e-05,1.40999015278e-07,0.0118165116604,0.999930182509,0.0004,0.0,0.0,0.0,0.0,0.0,0.0,0.0004,0.0,0.0,0.0,0.0,0.0,0.0,0.0004,0.0,0.0,0.0,0.0,0.0,0.0,0.0004,0.0,0.0,0.0,0.0,0.0,0.0,0.0004,0.0,0.0,0.0,0.0,0.0,0.0,0.0004,0.261987078632,0.0145522523282,0.00847261226631,0.0279502487799,-0.000393768977679,-0.00225527441162,0.0004,0.0,0.0,0.0,0.0,0.0,0.0,0.0004,0.0,0.0,0.0,0.0,0.0,0.0,0.0004,0.0,0.0,0.0,0.0,0.0,0.0,0.0004,0.0,0.0,0.0,0.0,0.0,0.0,0.0004,0.0,0.0,0.0,0.0,0.0,0.0,0.0004
274210000000,132,274210000000,world,chassis,0.109195064973,0.00114036358889,0.0999999998453,1.46130037357e-05,1.77391718204e-07,0.0121600842274,0.999926063336,0.0004,0.0,0.0,0.0,0.0,0.0,0.0,0.0004,0.0,0.0,0.0,0.0,0.0,0.0,0.0004,0.0,0.0,0.0,0.0,0.0,0.0,0.0004,0.0,0.0,0.0,0.0,0.0,0.0,0.0004,0.0,0.0,0.0,0.0,0.0,0.0,0.0004,0.312838054417,-0.00343942711604,-0.0280593238745,-0.0106368928237,-0.00275905816603,0.0360120994247,0.0004,0.0,0.0,0.0,0.0,0.0,0.0,0.0004,0.0,0.0,0.0,0.0,0.0,0.0,0.0004,0.0,0.0,0.0,0.0,0.0,0.0,0.0004,0.0,0.0,0.0,0.0,0.0,0.0,0.0004,0.0,0.0,0.0,0.0,0.0,0.0,0.0004
274260000000,133,274260000000,world,chassis,0.125402788605,0.00153930874694,0.0999999967952,1.84750003496e-05,2.251992724e-07,0.0124879543279,0.999922022287,0.0004,0.0,0.0,0.0,0.0,0.0,0.0,0.0004,0.0,0.0,0.0,0.0,0.0,0.0,0.0004,0.0,0.0,0.0,0.0,0.0,0.0,0.0004,0.0,0.0,0.0,0.0,0.0,0.0,0.0004,0.0,0.0,0.0,0.0,0.0,0.0,0.0004,0.316448902928,0.0399153001657,0.0166246148888,-0.0250877667051,-0.0140581569822,0.0300818167668,0.0004,0.0,0.0,0.0,0.0,0.0,0.0,0.0004,0.0,0.0,0.0,0.0,0.0,0.0,0.0004,0.0,0.0,0.0,0.0,0.0,0.0,0.0004,0.0,0.0,0.0,0.0,0.0,0.0,0.0004,0.0,0.0,0.0,0.0,0.0,0.0,0.0004
274310000000,134,274310000000,world,chassis,0.142801796872,0.00197852389221,0.0999999925077,2.11479438099e-05,2.56942453616e-07,0.0127975386996,0.999918107925,0.0004,0.0,0.0,0.0,0.0,0.0,0.0,0.0004,0.0,0.0,0.0,0.0,0.0,0.0,0.0004,0.0,0.0,0.0,0.0,0.0,0.0,0.0004,0.0,0.0,0.0,0.0,0.0,0.0,0.0004,0.0,0.0,0.0,0.0,0.0,0.0,0.0004,0.369308473247,0.00303368601764,-0.019222181287,-0.0358450966497,0.030132095355,0.00826375701662,0.0004,0.0,0.0,0.0,0.0,0.0,0.0,0.0004,0.0,0.0,0.0,0.0,0.0,0.0,0.0004,0.0,0.0,0.0,0.0,0.0,0.0,0.0004,0.0,0.0,0.0,0.0,0.0,0.0,0.0004,0.0,0.0,0.0,0.0,0.0,0.0,0.0004
274360000000,135,274360000000,world,chassis,0.161367171748,0.00245816530825,0.0999999885635,2.36977692926e-05,2.8871550644e-07,0.0130794600608,0.999914459923,0.0004,0.0,0.0,0.0,0.0,0.0,0.0,0.0004,0.0,0.0,0.0,0.0,0.0,0.0,0.0004,0.0,0.0,0.0,0.0,0.0,0.0,0.0004,0.0,0.0,0.0,0.0,0.0,0.0,0.0004,0.0,0.0,0.0,0.0,0.0,0.0,0.0004,0.4308389474,-0.0188155545437,-0.0721964562044,-0.0110868538577,-0.0361254346888,0.00132466701814,0.0004,0.0,0.0,0.0,0.0,0.0,0.0,0.0004,0.0,0.0,0.0,0.0,0.0,0.0,0.0004,0.0,0.0,0.0,0.0,0.0,0.0,0.0004,0.0,0.0,0.0,0.0,0.0,0.0,0.0004,0.0,0.0,0.0,0.0,0.0,0.0,0.0004
274410000000,136,274410000000,world,chassis,0.181098904557,0.00297856784797,0.0999999851029,2.59392060371e-05,3.18014300284e-07,0.0133336815623,0.99991110218,0.0004,0.0,0.0,0.0,0.0,0.0,0.0,0.0004,0.0,0.0,0.0,0.0,0.0,0.0,0.0004,0.0,0.0,0.0,0.0,0.0,0.0,0.0004,0.0,0.0,0.0,0.0,0.0,0.0,0.0004,0.0,0.0,0.0,0.0,0.0,0.0,0.0004,0.384745696345,0.00301246192025,0.00373923009827,0.0198995284846,-0.0010658423042,-0.00560988693633,0.0004,0.0,0.0,0.0,0.0,0.0,0.0,0.0004,0.0,0.0,0.0,0.0,0.0,0.0,0.0004,0.0,0.0,0.0,0.0,0.0,0.0,0.0004,0.0,0.0,0.0,0.0,0.0,0.0,0.0004,0.0,0.0,0.0,0.0,0.0,0.0,0.0004
274460000000,137,274460000000,world,chassis,0.201996984832,0.00353987483961,0.0999999824077,2.76917482564e-05,3.42507835802e-07,0.0135602370031,0.999908055376,0.0004,0.0,0.0,0.0,0.0,0.0,0.0,0.0004,0.0,0.0,0.0,0.0,0.0,0.0,0.0004,0.0,0.0,0.0,0.0,0.0,0.0,0.0004,0.0,0.0,0.0,0.0,0.0,0.0,0.0004,0.0,0.0,0.0,0.0,0.0,0.0,0.0004,0.449634451984,0.0141930390197,-0.0140502050005,-0.00671352289676,-0.0474444837659,0.0309908771847,0.0004,0.0,0.0,0.0,0.0,0.0,0.0,0.0004,0.0,0.0,0.0,0.0,0.0,0.0,0.0004,0.0,0.0,0.0,0.0,0.0,0.0,0.0004,0.0,0.0,0.0,0.0,0.0,0.0,0.0004,0.0,0.0,0.0,0.0,0.0,0.0,0.0004
274510000000,138,274510000000,world,chassis,0.224061401514,0.00414204601423,0.099999980773,2.87654973261e-05,3.59670428278e-07,0.0137591992447,0.999905337324,0.0004,0.0,0.0,0.0,0.0,0.0,0.0,0.0004,0.0,0.0,0.0,0.0,0.0,0.0,0.0004,0.0,0.0,0.0,0.0,0.0,0.0,0.0004,0.0,0.0,0.0,0.0,0.0,0.0,0.0004,0.0,0.0,0.0,0.0,0.0,0.0,0.0004,0.407263759783,0.0351592531232,0.0057201237016,0.0205035478486,0.0428173293099,0.00689217121243,0.0004,0.0,0.0,0.0,0.0,0.0,0.0,0.0004,0.0,0.0,0.0,0.0,0.0,0.0,0.0004,0.0,0.0,0.0,0.0,0.0,0.0,0.0004,0.0,0.0,0.0,0.0,0.0,0.0,0.0004,0.0,0.0,0.0,0.0,0.0,0.0,0.0004
274560000000,139,274560000000,world,chassis,0.247292141584,0.00478485675709,0.0999999804816,2.89775188953e-05,3.6700204509e-07,0.0139306865057,0.999902962859,0.0004,0.0,0.0,0.0,0.0,0.0,0.0,0.0004,0.0,0.0,0.0,0.0,0.0,0.0,0.0004,0.0,0.0,0.0,0.0,0.0,0.0,0.0004,0.0,0.0,0.0,0.0,0.0,0.0,0.0004,0.0,0.0,0.0,0.0,0.0,0.0,0.0004,0.460377054051,-0.0149676241775,-0.0230723889959,0.010611527263,0.00805693556225,0.0199358743189,0.0004,0.0,0.0,0.0,0.0,0.0,0.0,0.0004,0.0,0.0,0.0,0.0,0.0,0.0,0.0004,0.0,0.0,0.0,0.0,0.0,0.0,0.0004,0.0,0.0,0.0,0.0,0.0,0.0,0.0004,0.0,0.0,0.0,0.0,0.0,0.0,0.0004
274610000000,140,274610000000,world,chassis,0.271689188964,0.00546789644841,0.0999999817693,2.8173427292e-05,3.6232392354e-07,0.0140748659784,0.999900943771,0.0004,0.0,0.0,0.0,0.0,0.0,0.0,0.0004,0.0,0.0,0.0,0.0,0.0,0.0,0.0004,0.0,0.0,0.0,0.0,0.0,0.0,0.0004,0.0,0.0,0.0,0.0,0.0,0.0,0.0004,0.0,0.0,0.0,0.0,0.0,0.0,0.0004,0.507117605952,0.000425498003998,0.00918724555905,-0.0102878028857,0.0387750335725,-0.00289254918607,0.0004,0.0,0.0,0.0,0.0,0.0,0.0,0.0004,0.0,0.0,0.0,0.0,0.0,0.0,0.0004,0.0,0.0,0.0,0.0,0.0,0.0,0.0004,0.0,0.0,0.0,0.0,0.0,0.0,0.0004,0.0,0.0,0.0,0.0,0.0,0.0,0.0004
274660000000,141,274660000000,world,chassis,0.297252524072,0.00619056582647,0.0999999847846,2.62532122731e-05,3.44133089222e-07,0.0141919529085,0.99989928882,0.0004,0.0,0.0,0.0,0.0,0.0,0.0,0.0004,0.0,0.0,0.0,0.0,0.0,0.0,0.0004,0.0,0.0,0.0,0.0,0.0,0.0,0.0004,0.0,0.0,0.0,0.0,0.0,0.0,0.0004,0.0,0.0,0.0,0.0,0.0,0.0,0.0004,0.533540788164,0.0268240413224,-0.0436413313881,0.00422932898067,-0.0141881402575,-0.00223646801539,0.0004,0.0,0.0,0.0,0.0,0.0,0.0,0.0004,0.0,0.0,0.0,0.0,0.0,0.0,0.0004,0.0,0.0,0.0,0.0,0.0,0.0,0.0004,0.0,0.0,0.0,0.0,0.0,0.0,0.0004,0.0,0.0,0.0,0.0,0.0,0.0,0.0004
274710000000,142,274710000000,world,chassis,0.323982124536,0.00695207342622,0.0999999895449,2.31991533108e-05,3.11981860793e-07,0.0142822030463,0.999898003867,0.0004,0.0,0.0,0.0,0.0,0.0,0.0,0.0004,0.0,0.0,0.0,0.0,0.0,0.0,0.0004,0.0,0.0,0.0,0.0,0.0,0.0,0.0004,0.0,0.0,0.0,0.0,0.0,0.0,0.0004,0.0,0.0,0.0,0.0,0.0,0.0,0.0004,0.578944838072,0.00621789040806,0.028186688358,0.0134793421212,0.00692489417003,0.00691709988406,0.0004,0.0,0.0,0.0,0.0,0.0,0.0,0.0004,0.0,0.0,0.0,0.0,0.0,0.0,0.0004,0.0,0.0,0.0,0.0,0.0,0.0,0.0004,0.0,0.0,0.0,0.0,0.0,0.0,0.0004,0.0,0.0,0.0,0.0,0.0,0.0,0.0004
274760000000,143,274760000000,world,chassis,0.351877967632,0.00775143129869,0.0999999958957,1.91023234781e-05,2.66829528872e-07,0.0143458964646,0.99989709215,0.0004,0.0,0.0,0.0,0.0,0.0,0.0,0.0004,0.0,0.0,0.0,0.0,0.0,0.0,0.0004,0.0,0.0,0.0,0.0,0.0,0.0,0.0004,0.0,0.0,0.0,0.0,0.0,0.0,0.0004,0.0,0.0,0.0,0.0,0.0,0.0,0.0004,0.583514929981,0.0124929882851,-0.00444443505125,-0.00896048715355,0.00356984138053,0.0034815149188,0.0004,0.0,0.0,0.0,0.0,0.0,0.0,0.0004,0.0,0.0,0.0,0.0,0.0,0.0,0.0004,0.0,0.0,0.0,0.0,0.0,0.0,0.0004,0.0,0.0,0.0,0.0,0.0,0.0,0.0004,0.0,0.0,0.0,0.0,0.0,0.0,0.0004
274810000000,144,274810000000,world,chassis,0.380932453575,0.00858744203026,0.0999999977141,1.32653570705e-05,1.8721189843e-07,0.0143831862412,0.999896556538,0.0004,0.0,0.0,0.0,0.0,0.0,0.0,0.0004,0.0,0.0,0.0,0.0,0.0,0.0,0.0004,0.0,0.0,0.0,0.0,0.0,0.0,0.0004,0.0,0.0,0.0,0.0,0.0,0.0,0.0004,0.0,0.0,0.0,0.0,0.0,0.0,0.0004,0.579478097902,0.0274188068494,0.00755141189935,0.0196551488613,0.00313016680854,0.0298619702384,0.0004,0.0,0.0,0.0,0.0,0.0,0.0,0.0004,0.0,0.0,0.0,0.0,0.0,0.0,0.0004,0.0,0.0,0.0,0.0,0.0,0.0,0.0004,0.0,0.0,0.0,0.0,0.0,0.0,0.0004,0.0,0.0,0.0,0.0,0.0,0.0,0.0004
274860000000,145,274860000000,world,chassis,0.41115736124,0.00945984047382,0.0999999884367,7.69288195469e-06,8.95122575615e-08,0.0144412942737,0.999895719043,0.0004,0.0,0.0,0.0,0.0,0.0,0.0,0.0004,0.0,0.0,0.0,0.0,0.0,0.0,0.0004,0.0,0.0,0.0,0.0,0.0,0.0,0.0004,0.0,0.0,0.0,0.0,0.0,0.0,0.0004,0.0,0.0,0.0,0.0,0.0,0.0,0.0004,0.620066494486,0.0114142876694,-0.00369335535478,0.00895575361355,-0.00634211742458,0.022054086575,0.0004,0.0,0.0,0.0,0.0,0.0,0.0,0.0004,0.0,0.0,0.0,0.0,0.0,0.0,0.0004,0.0,0.0,0.0,0.0,0.0,0.0,0.0004,0.0,0.0,0.0,0.0,0.0,0.0,0.0004,0.0,0.0,0.0,0.0,0.0,0.0,0.0004
274910000000,146,274910000000,world,chassis,0.442548861891,0.0103702399189,0.0999999793349,2.35327576832e-06,-4.86652543273e-09,0.0145283721816,0.999894457629,0.0004,0.0,0.0,0.0,0.0,0.0,0.0,0.0004,0.0,0.0,0.0,0.0,0.0,0.0,0.0004,0.0,0.0,0.0,0.0,0.0,0.0,0.0004,0.0,0.0,0.0,0.0,0.0,0.0,0.0004,0.0,0.0,0.0,0.0,0.0,0.0,0.0004,0.638043666929,0.0166517711131,0.0251785056007,0.00151869930962,-0.0196016105725,-0.00106416295874,0.0004,0.0,0.0,0.0,0.0,0.0,0.0,0.0004,0.0,0.0,0.0,0.0,0.0,0.0,0.0004,0.0,0.0,0.0,0.0,0.0,0.0,0.0004,0.0,0.0,0.0,0.0,0.0,0.0,0.0004,0.0,0.0,0.0,0.0,0.0,0.0,0.0004
274960000000,147,274960000000,world,chassis,0.475107721282,0.0113207750396,0.10000054613,-1.92172775708e-06,-1.90178588766e-06,0.0146444552927,0.999892764211,0.0004,0.0,0.0,0.0,0.0,0.0,0.0,0.0004,0.0,0.0,0.0,0.0,0.0,0.0,0.0004,0.0,0.0,0.0,0.0,0.0,0.0,0.0004,0.0,0.0,0.0,0.0,0.0,0.0,0.0004,0.0,0.0,0.0,0.0,0.0,0.0,0.0004,0.656391158465,0.0170013089948,-0.0349555140645,0.00685683198072,-0.0162860808612,0.00836977576482,0.0004,0.0,0.0,0.0,0.0,0.0,0.0,0.0004,0.0,0.0,0.0,0.0,0.0,0.0,0.0004,0.0,0.0,0.0,0.0,0.0,0.0,0.0004,0.0,0.0,0.0,0.0,0.0,0.0,0.0004,0.0,0.0,0.0,0.0,0.0,0.0,0.0004
275010000000,148,275010000000,world,chassis,0.508833813379,0.0123139111979,0.10000104491,-4.93801842663e-06,-3.60952847109e-06,0.0147889270276,0.99989063782,0.0004,0.0,0.0,0.0,0.0,0.0,0.0,0.0004,0.0,0.0,0.0,0.0,0.0,0.0,0.0004,0.0,0.0,0.0,0.0,0.0,0.0,0.0004,0.0,0.0,0.0,0.0,0.0,0.0,0.0004,0.0,0.0,0.0,0.0,0.0,0.0,0.0004,0.684729107865,-0.00801074065374,-0.0130595400049,0.0238583898509,-0.000751724023748,0.00551941548522,0.0004,0.0,0.0,0.0,0.0,0.0,0.0,0.0004,0.0,0.0,0.0,0.0,0.0,0.0,0.0004,0.0,0.0,0.0,0.0,0.0,0.0,0.0004,0.0,0.0,0.0,0.0,0.0,0.0,0.0004,0.0,0.0,0.0,0.0,0.0,0.0,0.0004
275060000000,149,275060000000,world,chassis,0.543726178678,0.0133521047086,0.10000128076,-6.34882230211e-06,-4.41790593138e-06,0.014961113799,0.999888076244,0.0004,0.0,0.0,0.0,0.0,0.0,0.0,0.0004,0.0,0.0,0.0,0.0,0.0,0.0,0.0004,0.0,0.0,0.0,0.0,0.0,0.0,0.0004,0.0,0.0,0.0,0.0,0.0,0.0,0.0004,0.0,0.0,0.0,0.0,0.0,0.0,0.0004,0.715569020406,0.00924089890384,-0.037889815359,0.0193894470552,0.0135263019223,-0.00289874749703,0.0004,0.0,0.0,0.0,0.0,0.0,0.0,0.0004,0.0,0.0,0.0,0.0,0.0,0.0,0.0004,0.0,0.0,0.0,0.0,0.0,0.0,0.0004,0.0,0.0,0.0,0.0,0.0,0.0,0.0004,0.0,0.0,0.0,0.0,0.0,0.0,0.0004
275110000000,150,275110000000,world,chassis,0.579784644475,0.0144380127955,0.100001192503,-5.83331381283e-06,-4.11730126182e-06,0.0151605623035,0.999885072046,0.0004,0.0,0.0,0.0,0.0,0.0,0.0,0.0004,0.0,0.0,0.0,0.0,0.0,0.0,0.0004,0.0,0.0,0.0,0.0,0.0,0.0,0.0004,0.0,0.0,0.0,0.0,0.0,0.0,0.0004,0.0,0.0,0.0,0.0,0.0,0.0,0.0004,0.758059685856,0.048097683234,-0.00956887578297,-0.0134371648559,0.0163660573925,0.00547004951378,0.0004,0.0,0.0,0.0,0.0,0.0,0.0,0.0004,0.0,0.0,0.0,0.0,0.0,0.0,0.0004,0.0,0.0,0.0,0.0,0.0,0.0,0.0004,0.0,0.0,0.0,0.0,0.0,0.0,0.0004,0.0,0.0,0.0,0.0,0.0,0.0,0.0004
275160000000,151,275160000000,world,chassis,0.617009000884,0.0155744829073,0.100000760086,-3.26841272576e-06,-2.63776927984e-06,0.0153867331254,0.999881617206,0.0004,0.0,0.0,0.0,0.0,0.0,0.0,0.0004,0.0,0.0,0.0,0.0,0.0,0.0,0.0004,0.0,0.0,0.0,0.0,0.0,0.0,0.0004,0.0,0.0,0.0,0.0,0.0,0.0,0.0004,0.0,0.0,0.0,0.0,0.0,0.0,0.0004,0.756126151067,-0.000254819457725,0.012964161702,0.00120430974,0.0225428662247,-0.00358702828938,0.0004,0.0,0.0,0.0,0.0,0.0,0.0,0.0004,0.0,0.0,0.0,0.0,0.0,0.0,0.0004,0.0,0.0,0.0,0.0,0.0,0.0,0.0004,0.0,0.0,0.0,0.0,0.0,0.0,0.0004,0.0,0.0,0.0,0.0,0.0,0.0,0.0004
275210000000,152,275210000000,world,chassis,0.655399019637,0.0167645674253,0.100000014019,1.1688070779e-06,-8.21984079491e-08,0.0156390378219,0.999877702769,0.0004,0.0,0.0,0.0,0.0,0.0,0.0,0.0004,0.0,0.0,0.0,0.0,0.0,0.0,0.0004,0.0,0.0,0.0,0.0,0.0,0.0,0.0004,0.0,0.0,0.0,0.0,0.0,0.0,0.0004,0.0,0.0,0.0,0.0,0.0,0.0,0.0004,0.774674513732,0.0202789307924,0.0214665640929,0.00622177777683,0.0102420116647,0.0160755972411,0.0004,0.0,0.0,0.0,0.0,0.0,0.0,0.0004,0.0,0.0,0.0,0.0,0.0,0.0,0.0004,0.0,0.0,0.0,0.0,0.0,0.0,0.0004,0.0,0.0,0.0,0.0,0.0,0.0,0.0004,0.0,0.0,0.0,0.0,0.0,0.0,0.0004
275260000000,153,275260000000,world,chassis,0.694952770653,0.0180113705936,0.0999999898085,7.97354972142e-06,1.07956621057e-07,0.015915930257,0.999873333528,0.0004,0.0,0.0,0.0,0.0,0.0,0.0,0.0004,0.0,0.0,0.0,0.0,0.0,0.0,0.0004,0.0,0.0,0.0,0.0,0.0,0.0,0.0004,0.0,0.0,0.0,0.0,0.0,0.0,0.0004,0.0,0.0,0.0,0.0,0.0,0.0,0.0004,0.81383467432,0.0304285786172,-0.0147831567964,0.0201314023606,0.00562679862791,0.00419120204275,0.0004,0.0,0.0,0.0,0.0,0.0,0.0,0.0004,0.0,0.0,0.0,0.0,0.0,0.0,0.0004,0.0,0.0,0.0,0.0,0.0,0.0,0.0004,0.0,0.0,0.0,0.0,0.0,0.0,0.0004,0.0,0.0,0.0,0.0,0.0,0.0,0.0004
275310000000,154,275310000000,world,chassis,0.735670119117,0.0193192294369,0.100001002369,1.40601084715e-05,-3.11451477527e-06,0.0162156428065,0.999868517717,0.0004,0.0,0.0,0.0,0.0,0.0,0.0,0.0004,0.0,0.0,0.0,0.0,0.0,0.0,0.0004,0.0,0.0,0.0,0.0,0.0,0.0,0.0004,0.0,0.0,0.0,0.0,0.0,0.0,0.0004,0.0,0.0,0.0,0.0,0.0,0.0,0.0004,0.843279938087,0.0377286805305,0.00602763350472,0.0394349692015,-0.0341395580211,0.0116331206742,0.0004,0.0,0.0,0.0,0.0,0.0,0.0,0.0004,0.0,0.0,0.0,0.0,0.0,0.0,0.0004,0.0,0.0,0.0,0.0,0.0,0.0,0.0004,0.0,0.0,0.0,0.0,0.0,0.0,0.0004,0.0,0.0,0.0,0.0,0.0,0.0,0.0004
275360000000,155,275360000000,world,chassis,0.777574387188,0.0206888260454,0.0999999914503,2.21265601111e-05,3.49427665437e-07,0.016501426859,0.999863841941,0.0004,0.0,0.0,0.0,0.0,0.0,0.0,0.0004,0.0,0.0,0.0,0.0,0.0,0.0,0.0004,0.0,0.0,0.0,0.0,0.0,0.0,0.0004,0.0,0.0,0.0,0.0,0.0,0.0,0.0004,0.0,0.0,0.0,0.0,0.0,0.0,0.0004,0.84046386083,0.0513960657773,-0.0217076741831,-0.000182359913595,0.00624303833676,-0.01919569486,0.0004,0.0,0.0,0.0,0.0,0.0,0.0,0.0004,0.0,0.0,0.0,0.0,0.0,0.0,0.0004,0.0,0.0,0.0,0.0,0.0,0.0,0.0004,0.0,0.0,0.0,0.0,0.0,0.0,0.0004,0.0,0.0,0.0,0.0,0.0,0.0,0.0004
275410000000,156,275410000000,world,chassis,0.820654303719,0.0221208273106,0.0999999839691,2.70433679091e-05,4.23212959191e-07,0.0167581194091,0.999859572491,0.0004,0.0,0.0,0.0,0.0,0.0,0.0,0.0004,0.0,0.0,0.0,0.0,0.0,0.0,0.0004,0.0,0.0,0.0,0.0,0.0,0.0,0.0004,0.0,0.0,0.0,0.0,0.0,0.0,0.0004,0.0,0.0,0.0,0.0,0.0,0.0,0.0004,0.862687724084,0.0542137102738,-0.0160323407216,-0.0187181256282,-0.0152687641037,0.0145958518653,0.0004,0.0,0.0,0.0,0.0,0.0,0.0,0.0004,0.0,0.0,0.0,0.0,0.0,0.0,0.0004,0.0,0.0,0.0,0.0,0.0,0.0,0.0004,0.0,0.0,0.0,0.0,0.0,0.0,0.0004,0.0,0.0,0.0,0.0,0.0,0.0,0.0004
275460000000,157,275460000000,world,chassis,0.864900033772,0.0236135510833,0.0999999809899,2.909849803e-05,4.58605311831e-07,0.0169862327221,0.999855723118,0.0004,0.0,0.0,0.0,0.0,0.0,0.0,0.0004,0.0,0.0,0.0,0.0,0.0,0.0,0.0004,0.0,0.0,0.0,0.0,0.0,0.0,0.0004,0.0,0.0,0.0,0.0,0.0,0.0,0.0004,0.0,0.0,0.0,0.0,0.0,0.0,0.0004,0.908862547351,0.0424327042581,0.013701516132,-0.0145233212244,0.0102650856788,0.0132147028653,0.0004,0.0,0.0,0.0,0.0,0.0,0.0,0.0004,0.0,0.0,0.0,0.0,0.0,0.0,0.0004,0.0,0.0,0.0,0.0,0.0,0.0,0.0004,0.0,0.0,0.0,0.0,0.0,0.0,0.0004,0.0,0.0,0.0,0.0,0.0,0.0,0.0004
275510000000,158,275510000000,world,chassis,0.91031142022,0.0251658064804,0.0999999834625,2.76449721125e-05,4.4418485866e-07,0.0171867756059,0.999852296082,0.0004,0.0,0.0,0.0,0.0,0.0,0.0,0.0004,0.0,0.0,0.0,0.0,0.0,0.0,0.0004,0.0,0.0,0.0,0.0,0.0,0.0,0.0004,0.0,0.0,0.0,0.0,0.0,0.0,0.0004,0.0,0.0,0.0,0.0,0.0,0.0,0.0004,0.894572208808,0.0213601412441,-0.00730444743294,0.0295990579701,-0.00422087293759,-0.0147340880733,0.0004,0.0,0.0,0.0,0.0,0.0,0.0,0.0004,0.0,0.0,0.0,0.0,0.0,0.0,0.0004,0.0,0.0,0.0,0.0,0.0,0.0,0.0004,0.0,0.0,0.0,0.0,0.0,0.0,0.0004,0.0,0.0,0.0,0.0,0.0,0.0,0.0004
275560000000,159,275560000000,world,chassis,0.956888276351,0.0267761855338,0.0999999912628,2.2714312277e-05,3.78302710654e-07,0.0173609427293,0.999849287219,0.0004,0.0,0.0,0.0,0.0,0.0,0.0,0.0004,0.0,0.0,0.0,0.0,0.0,0.0,0.0004,0.0,0.0,0.0,0.0,0.0,0.0,0.0004,0.0,0.0,0.0,0.0,0.0,0.0,0.0004,0.0,0.0,0.0,0.0,0.0,0.0,0.0004,0.936432489735,0.0221061080984,-0.00381492810061,0.0144467667587,0.0345936380234,-0.00234038801981,0.0004,0.0,0.0,0.0,0.0,0.0,0.0,0.0004,0.0,0.0,0.0,0.0,0.0,0.0,0.0004,0.0,0.0,0.0,0.0,0.0,0.0,0.0004,0.0,0.0,0.0,0.0,0.0,0.0,0.0004,0.0,0.0,0.0,0.0,0.0,0.0,0.0004
275610000000,160,275610000000,world,chassis,1.00450722273,0.02844053943,0.099999999843,1.37140407975e-05,2.4198004538e-07,0.0176578158847,0.999844088521,0.0004,0.0,0.0,0.0,0.0,0.0,0.0,0.0004,0.0,0.0,0.0,0.0,0.0,0.0,0.0004,0.0,0.0,0.0,0.0,0.0,0.0,0.0004,0.0,0.0,0.0,0.0,0.0,0.0,0.0004,0.0,0.0,0.0,0.0,0.0,0.0,0.0004,0.987819819739,0.01113028986,0.00981024360012,-0.0205482617144,-0.0263807874018,0.0594653554959,0.0004,0.0,0.0,0.0,0.0,0.0,0.0,0.0004,0.0,0.0,0.0,0.0,0.0,0.0,0.0004,0.0,0.0,0.0,0.0,0.0,0.0,0.0004,0.0,0.0,0.0,0.0,0.0,0.0,0.0004,0.0,0.0,0.0,0.0,0.0,0.0,0.0004
275660000000,161,275660000000,world,chassis,1.05250386275,0.0301801084487,0.0999999633722,6.22516967529e-06,3.78339630866e-08,0.0187464607811,0.999824269644,0.0004,0.0,0.0,0.0,0.0,0.0,0.0,0.0004,0.0,0.0,0.0,0.0,0.0,0.0,0.0004,0.0,0.0,0.0,0.0,0.0,0.0,0.0004,0.0,0.0,0.0,0.0,0.0,0.0,0.0004,0.0,0.0,0.0,0.0,0.0,0.0,0.0004,0.932662308293,0.0387824241307,0.00435515802875,-0.0202699431055,0.00226164068073,0.0842413127703,0.0004,0.0,0.0,0.0,0.0,0.0,0.0,0.0004,0.0,0.0,0.0,0.0,0.0,0.0,0.0004,0.0,0.0,0.0,0.0,0.0,0.0,0.0004,0.0,0.0,0.0,0.0,0.0,0.0,0.0004,0.0,0.0,0.0,0.0,0.0,0.0,0.0004
275710000000,162,275710000000,world,chassis,1.10086374978,0.0321124268967,0.0999925815974,-1.67906354895e-06,-2.71927891897e-06,0.0215900992103,0.999766906637,0.0004,0.0,0.0,0.0,0.0,0.0,0.0,0.0004,0.0,0.0,0.0,0.0,0.0,0.0,0.0004,0.0,0.0,0.0,0.0,0.0,0.0,0.0004,0.0,0.0,0.0,0.0,0.0,0.0,0.0004,0.0,0.0,0.0,0.0,0.0,0.0,0.0004,0.984592008188,0.0502852443491,0.00205166924052,-0.00418703463188,-0.0103695065428,0.161932927609,0.0004,0.0,0.0,0.0,0.0,0.0,0.0,0.0004,0.0,0.0,0.0,0.0,0.0,0.0,0.0004,0.0,0.0,0.0,0.0,0.0,0.0,0.0004,0.0,0.0,0.0,0.0,0.0,0.0,0.0004,0.0,0.0,0.0,0.0,0.0,0.0,0.0004
275760000000,163,275760000000,world,chassis,1.14939275586,0.0344120364254,0.100002492961,-4.92925926468e-07,-8.45316407666e-06,0.0261591140794,0.999657791786,0.0004,0.0,0.0,0.0,0.0,0.0,0.0,0.0004,0.0,0.0,0.0,0.0,0.0,0.0,0.0004,0.0,0.0,0.0,0.0,0.0,0.0,0.0004,0.0,0.0,0.0,0.0,0.0,0.0,0.0004,0.0,0.0,0.0,0.0,0.0,0.0,0.0004,0.978325001909,0.0697061891852,0.01173117935,0.0101486424757,-0.00218398698406,0.25322975509,0.0004,0.0,0.0,0.0,0.0,0.0,0.0,0.0004,0.0,0.0,0.0,0.0,0.0,0.0,0.0004,0.0,0.0,0.0,0.0,0.0,0.0,0.0004,0.0,0.0,0.0,0.0,0.0,0.0,0.0004,0.0,0.0,0.0,0.0,0.0,0.0,0.0004
275810000000,164,275810000000,world,chassis,1.19816632706,0.0372590217704,0.100002488859,-8.57121311378e-06,-2.01355793567e-06,0.0323713908604,0.999475909153,0.0004,0.0,0.0,0.0,0.0,0.0,0.0,0.0004,0.0,0.0,0.0,0.0,0.0,0.0,0.0004,0.0,0.0,0.0,0.0,0.0,0.0,0.0004,0.0,0.0,0.0,0.0,0.0,0.0,0.0004,0.0,0.0,0.0,0.0,0.0,0.0,0.0004,1.01391276194,0.0446688505948,-0.0263535748292,0.00508151922864,0.00812215268723,0.297180041152,0.0004,0.0,0.0,0.0,0.0,0.0,0.0,0.0004,0.0,0.0,0.0,0.0,0.0,0.0,0.0004,0.0,0.0,0.0,0.0,0.0,0.0,0.0004,0.0,0.0,0.0,0.0,0.0,0.0,0.0004,0.0,0.0,0.0,0.0,0.0,0.0,0.0004
275860000000,165,275860000000,world,chassis,1.24723479807,0.0407974942067,0.100002002709,-4.81264539833e-06,3.3120498979e-06,0.0399437914257,0.999201928287,0.0004,0.0,0.0,0.0,0.0,0.0,0.0,0.0004,0.0,0.0,0.0,0.0,0.0,0.0,0.0004,0.0,0.0,0.0,0.0,0.0,0.0,0.0004,0.0,0.0,0.0,0.0,0.0,0.0,0.0004,0.0,0.0,0.0,0.0,0.0,0.0,0.0004,0.965570380937,0.0585174911976,0.0247412911244,-0.0135153338743,-0.0220292555056,0.365107705541,0.0004,0.0,0.0,0.0,0.0,0.0,0.0,0.0004,0.0,0.0,0.0,0.0,0.0,0.0,0.0004,0.0,0.0,0.0,0.0,0.0,0.0,0.0004,0.0,0.0,0.0,0.0,0.0,0.0,0.0004,0.0,0.0,0.0,0.0,0.0,0.0,0.0004
275910000000,166,275910000000,world,chassis,1.29654634174,0.0451761617021,0.100001361551,6.0237010821e-06,-4.24959686662e-06,0.048928140207,0.99880230128,0.0004,0.0,0.0,0.0,0.0,0.0,0.0,0.0004,0.0,0.0,0.0,0.0,0.0,0.0,0.0004,0.0,0.0,0.0,0.0,0.0,0.0,0.0004,0.0,0.0,0.0,0.0,0.0,0.0,0.0004,0.0,0.0,0.0,0.0,0.0,0.0,0.0004,1.00396242612,0.0875927934034,-0.0256698830326,0.0155874679666,0.00887629991092,0.366575916999,0.0004,0.0,0.0,0.0,0.0,0.0,0.0,0.0004,0.0,0.0,0.0,0.0,0.0,0.0,0.0004,0.0,0.0,0.0,0.0,0.0,0.0,0.0004,0.0,0.0,0.0,0.0,0.0,0.0,0.0004,0.0,0.0,0.0,0.0,0.0,0.0,0.0004
275960000000,167,275960000000,world,chassis,1.34580918653,0.0504678084258,0.0999999997972,2.56309007719e-05,1.50032958814e-06,0.0584418538618,0.99829081387,0.0004,0.0,0.0,0.0,0.0,0.0,0.0,0.0004,0.0,0.0,0.0,0.0,0.0,0.0,0.0004,0.0,0.0,0.0,0.0,0.0,0.0,0.0004,0.0,0.0,0.0,0.0,0.0,0.0,0.0004,0.0,0.0,0.0,0.0,0.0,0.0,0.0004,0.94797557779,0.1506059711,-0.0115467713404,-0.02498094594,0.0292335015831,0.37028665181,0.0004,0.0,0.0,0.0,0.0,0.0,0.0,0.0004,0.0,0.0,0.0,0.0,0.0,0.0,0.0004,0.0,0.0,0.0,0.0,0.0,0.0,0.0004,0.0,0.0,0.0,0.0,0.0,0.0,0.0004,0.0,0.0,0.0,0.0,0.0,0.0,0.0004
276010000000,168,276010000000,world,chassis,1.39496395262,0.0567009757173,0.0999999997258,3.70049830041e-05,2.51960967258e-06,0.0679355364709,0.997689712039,0.0004,0.0,0.0,0.0,0.0,0.0,0.0,0.0004,0.0,0.0,0.0,0.0,0.0,0.0,0.0004,0.0,0.0,0.0,0.0,0.0,0.0,0.0004,0.0,0.0,0.0,0.0,0.0,0.0,0.0004,0.0,0.0,0.0,0.0,0.0,0.0,0.0004,0.959595784716,0.141294407702,0.00365696826865,-0.0175590196275,-0.0183802923896,0.355650647506,0.0004,0.0,0.0,0.0,0.0,0.0,0.0,0.0004,0.0,0.0,0.0,0.0,0.0,0.0,0.0004,0.0,0.0,0.0,0.0,0.0,0.0,0.0004,0.0,0.0,0.0,0.0,0.0,0.0,0.0004,0.0,0.0,0.0,0.0,0.0,0.0,0.0004
276060000000,169,276060000000,world,chassis,1.44460021148,0.0639580038608,0.0999997504222,3.97194328166e-05,2.25029929527e-06,0.0773970452224,0.997000348951,0.0004,0.0,0.0,0.0,0.0,0.0,0.0,0.0004,0.0,0.0,0.0,0.0,0.0,0.0,0.0004,0.0,0.0,0.0,0.0,0.0,0.0,0.0004,0.0,0.0,0.0,0.0,0.0,0.0,0.0004,0.0,0.0,0.0,0.0,0.0,0.0,0.0004,1.01734986242,0.127866580406,-0.00126329937197,-0.00257299118968,-0.000386078609743,0.365711709921,0.0004,0.0,0.0,0.0,0.0,0.0,0.0,0.0004,0.0,0.0,0.0,0.0,0.0,0.0,0.0004,0.0,0.0,0.0,0.0,0.0,0.0,0.0004,0.0,0.0,0.0,0.0,0.0,0.0,0.0004,0.0,0.0,0.0,0.0,0.0,0.0,0.0004
276110000000,170,276110000000,world,chassis,1.49442420934,0.0721761897301,0.0999911099483,4.00131968157e-05,5.1096002487e-06,0.0866447194476,0.996239273952,0.0004,0.0,0.0,0.0,0.0,0.0,0.0,0.0004,0.0,0.0,0.0,0.0,0.0,0.0,0.0004,0.0,0.0,0.0,0.0,0.0,0.0,0.0004,0.0,0.0,0.0,0.0,0.0,0.0,0.0004,0.0,0.0,0.0,0.0,0.0,0.0,0.0004,1.01109205295,0.198698018115,-0.024473751523,0.00695238226033,0.0165040600141,0.389852188522,0.0004,0.0,0.0,0.0,0.0,0.0,0.0,0.0004,0.0,0.0,0.0,0.0,0.0,0.0,0.0004,0.0,0.0,0.0,0.0,0.0,0.0,0.0004,0.0,0.0,0.0,0.0,0.0,0.0,0.0004,0.0,0.0,0.0,0.0,0.0,0.0,0.0004
276160000000,171,276160000000,world,chassis,1.54410220522,0.0813111841611,0.100000393452,3.58283728357e-05,4.88525606401e-06,0.0956371576986,0.995416261049,0.0004,0.0,0.0,0.0,0.0,0.0,0.0,0.0004,0.0,0.0,0.0,0.0,0.0,0.0,0.0004,0.0,0.0,0.0,0.0,0.0,0.0,0.0004,0.0,0.0,0.0,0.0,0.0,0.0,0.0004,0.0,0.0,0.0,0.0,0.0,0.0,0.0004,0.978509119304,0.176351249383,0.00731372326148,0.03089801017,0.00349508441767,0.38491475848,0.0004,0.0,0.0,0.0,0.0,0.0,0.0,0.0004,0.0,0.0,0.0,0.0,0.0,0.0,0.0004,0.0,0.0,0.0,0.0,0.0,0.0,0.0004,0.0,0.0,0.0,0.0,0.0,0.0,0.0004,0.0,0.0,0.0,0.0,0.0,0.0,0.0004
